,index,link,title,postdate,latitude,longitude,neighborhood,beds,baths,area,others,price,text,restaurant_count,school_count,bus_station_count,railway_station_count,distance_from_us
0,0,https://chicago.craigslist.org/chc/apa/d/chicago-spacious-1-bedden-balcony-in/6847307928.html,***SPACIOUS 1-BED+DEN w/ BALCONY IN QUIET PART OF RIVER NORTH!***,Apr  4,41.894732,-87.641553,,1.0,1.0,825.0,"['available apr 4', 'cats are OK - purrr', 'dogs are OK - wooof', 'apartment', 'w/d in unit', 'no smoking', 'attached garage']",2340.0,price: $2340.0<br>Beds: 1.0<br> Baths: 1.0,21,2,0,4,1.108805202683776
1,1,https://chicago.craigslist.org/chc/apa/d/chicago-modern-studio-available/6843193191.html,Modern studio available,Apr  4,41.933008,-87.640019,,0.0,1.0,,,1230.0,price: $1230.0<br>Beds: 0.0<br> Baths: 1.0,26,3,0,0,3.749735892939505
2,2,https://chicago.craigslist.org/chc/apa/d/chicago-modern-studio-available/6849999989.html,Modern studio available,Apr  4,41.933008,-87.640019,,0.0,1.0,,,1230.0,price: $1230.0<br>Beds: 0.0<br> Baths: 1.0,26,3,0,0,3.749735892939505
3,3,https://chicago.craigslist.org/chc/apa/d/chicago-modern-studio-available/6845360856.html,Modern studio available,Apr  4,41.933008,-87.640019,,0.0,1.0,,,1230.0,price: $1230.0<br>Beds: 0.0<br> Baths: 1.0,26,3,0,0,3.749735892939505
4,4,https://chicago.craigslist.org/chc/apa/d/chicago-lincoln-park-studio-available/6843643327.html,Lincoln Park Studio Available,Apr  4,41.930651,-87.640868,,0.0,1.0,,,1220.0,price: $1220.0<br>Beds: 0.0<br> Baths: 1.0,30,5,0,1,3.587087247948611
5,5,https://chicago.craigslist.org/chc/apa/d/chicago-large-living-room-city-views/6858269022.html,LARGE LIVING ROOM !! CITY VIEWS!!,Apr  4,41.987631,-87.655556,,1.0,1.0,,,1265.0,price: $1265.0<br>Beds: 1.0<br> Baths: 1.0,5,1,0,3,7.561876954182116
6,6,https://chicago.craigslist.org/chc/apa/d/chicago-hot-division-damen-location/6858269428.html,Hot Division / Damen location,Apr  4,41.903232,-87.677254,,3.0,1.0,,,2550.0,price: $2550.0<br>Beds: 3.0<br> Baths: 1.0,41,5,0,2,2.544926775715172
7,7,https://chicago.craigslist.org/chc/apa/d/chicago-gorgeous-1-bedroom-unit/6854731193.html,Gorgeous 1 bedroom unit,Apr  4,41.915151,-87.672744,,1.0,1.0,740.0,"['available may 1', 'cats are OK - purrr', 'dogs are OK - wooof', 'apartment', 'laundry on site', 'street parking']",1450.0,price: $1450.0<br>Beds: 1.0<br> Baths: 1.0,25,4,0,2,3.019004993104951
8,8,https://chicago.craigslist.org/chc/apa/d/chicago-great-upper-apartment-available/6849107923.html,Great Upper Apartment Available Now!!,Apr  4,41.7411,-87.6543,,1.0,1.0,,,800.0,price: $800.0<br>Beds: 1.0<br> Baths: 1.0,0,1,0,2,9.527903381956547
9,9,https://chicago.craigslist.org/chc/apa/d/chicago-this-is-the-brand-new-luxury-2/6858269569.html,***THIS IS THE BRAND NEW LUXURY 2 BED YOU'VE BEEN SEEKING***,Apr  4,41.8721,-87.6578,,2.0,2.0,,,4025.0,price: $4025.0<br>Beds: 2.0<br> Baths: 2.0,9,4,0,3,1.0085168139971645
10,10,https://chicago.craigslist.org/chc/apa/d/chicago-southport-corridore-loft-in-old/6858269696.html,Southport Corridore Loft in old Comed Substation - Duplex - 2 bed 2 ba,Apr  4,41.944587,-87.655533,,2.0,2.0,,,2500.0,price: $2500.0<br>Beds: 2.0<br> Baths: 2.0,30,2,0,4,4.616024354025006
11,11,https://chicago.craigslist.org/chc/apa/d/chicago-gorgeous-two-bed-apartment-with/6858269820.html,Gorgeous Two Bed Apartment With Picturesque Views of thew City AND Lak,Apr  4,41.897932,-87.631452,,2.0,1.0,,,2346.0,price: $2346.0<br>Beds: 2.0<br> Baths: 1.0,50,4,0,4,1.4036008248123384
12,12,https://chicago.craigslist.org/chc/apa/d/chicago-phenomenal-loop-studio-d-in/6858269836.html,"Phenomenal Loop Studio, W/D In Unit, Hdwd Floors, Pool, Pet friendly!",Apr  4,41.8858,-87.6181,,0.0,1.0,,,1650.0,price: $1650.0<br>Beds: 0.0<br> Baths: 1.0,15,0,0,13,1.2420370140912709
13,13,https://chicago.craigslist.org/chc/apa/d/chicago-beautiful-1br-with-new-kitchen/6858269862.html,Beautiful 1BR with New Kitchen in Albany Park!,Apr  4,41.9703,-87.7042,,1.0,1.0,,,1350.0,price: $1350.0<br>Beds: 1.0<br> Baths: 1.0,3,0,0,4,7.125694512501364
14,14,https://chicago.craigslist.org/chc/apa/d/chicago-brand-new-glorious-studio-with/6852985878.html,"^^^BRAND NEW GLORIOUS STUDIO WITH W/D, HDWD, GYM^^^",Apr  4,41.992631,-87.658656,,0.0,1.0,,,1075.0,price: $1075.0<br>Beds: 0.0<br> Baths: 1.0,13,2,0,3,7.922689187687864
15,15,https://chicago.craigslist.org/chc/apa/d/chicago-11th-floor-all-east-views/6858270466.html,11th Floor. All East views looking at Lake & Beach!,Apr  4,41.987631,-87.655556,,1.0,1.0,,,1495.0,price: $1495.0<br>Beds: 1.0<br> Baths: 1.0,5,1,0,3,7.561876954182116
16,16,https://chicago.craigslist.org/chc/apa/d/chicago-lakeview-3-bedroom/6853852174.html,Lakeview 3 Bedroom,Apr  4,41.944537,-87.659419,,3.0,1.0,,,2100.0,price: $2100.0<br>Beds: 3.0<br> Baths: 1.0,27,1,0,4,4.650668095321389
17,17,https://chicago.craigslist.org/chc/apa/d/chicago-stay-gold-in-this-2-bedroom-2/6858210639.html,Stay Gold in this 2 Bedroom/2 Bathroom in the Heart of the Gold Coast,Apr  4,41.903132,-87.630153,,2.0,2.0,,,2881.0,price: $2881.0<br>Beds: 2.0<br> Baths: 2.0,42,4,0,4,1.7656951892780566
18,18,https://chicago.craigslist.org/chc/apa/d/chicago-gorgeous-lakeview-unit-2/6837883012.html,Gorgeous Lakeview Unit: 2 bedroom 1 bath,Apr  4,41.939132,-87.650154,,2.0,1.0,,,1950.0,price: $1950.0<br>Beds: 2.0<br> Baths: 1.0,50,5,0,4,4.203150801421777
19,19,https://chicago.craigslist.org/chc/apa/d/chicago-incredible-space-and-value/6839280002.html,***INCREDIBLE SPACE AND VALUE! GREAT 1-BED IN DOWNTOWN CHICAGO!***,Apr  4,41.888232,-87.622352,,1.0,1.0,795.0,"['available jul 20', 'cats are OK - purrr', 'dogs are OK - wooof', 'apartment', 'laundry in bldg', 'no smoking', 'valet parking']",1877.0,price: $1877.0<br>Beds: 1.0<br> Baths: 1.0,50,1,0,13,1.1332922234301932
20,20,https://chicago.craigslist.org/chc/apa/d/chicago-beautiful-2-bedroom-condo-in/6845071154.html,Beautiful 2 Bedroom Condo in Lincoln Park w/Parking,Apr  4,41.920132,-87.643953,,2.0,1.0,,,2400.0,price: $2400.0<br>Beds: 2.0<br> Baths: 1.0,27,3,0,2,2.866835206334867
21,21,https://chicago.craigslist.org/chc/apa/d/chicago-beautiful-apartment-small-dog-ok/6858264173.html,BEAUTIFUL APARTMENT !! SMALL DOG OK!!,Apr  4,41.987631,-87.655556,,1.0,1.0,,,1245.0,price: $1245.0<br>Beds: 1.0<br> Baths: 1.0,5,1,0,3,7.561876954182116
22,22,https://chicago.craigslist.org/chc/apa/d/chicago-brand-new-luxury-1-bedroom-pick/6858264218.html,***BRAND NEW LUXURY 1 BEDROOM - PICK YOUR FLOOR PLAN***,Apr  4,41.975631,-87.655255,,1.0,1.0,,,1425.0,price: $1425.0<br>Beds: 1.0<br> Baths: 1.0,12,2,0,4,6.736569772977297
23,23,https://chicago.craigslist.org/chc/apa/d/chicago-available-4bed-2-bth-home-for/6858264259.html,Available 4bed 2 bth Home For Rent!,Apr  4,41.946084,-87.822926,,4.0,2.0,1248.0,"['cats are OK - purrr', 'dogs are OK - wooof', 'house', 'w/d in unit', 'detached garage']",800.0,price: $800.0<br>Beds: 4.0<br> Baths: 2.0,0,1,0,0,10.473629674271491
24,24,https://chicago.craigslist.org/chc/apa/d/chicago-stunning-coach-house-in-wicker/6847237548.html,Stunning Coach-house in Wicker Park: 3 bedroom 2 bath,Apr  4,41.897732,-87.677154,,3.0,2.0,,,2995.0,price: $2995.0<br>Beds: 3.0<br> Baths: 2.0,19,3,0,2,2.3054764675803954
25,25,https://chicago.craigslist.org/chc/apa/d/chicago-1-bedroom-park-views-indoor/6858210203.html,1 Bedroom w/ Park Views & Indoor Pool in the heart of Chicago,Apr  4,41.897995,-87.629929,,1.0,1.0,,,1897.0,price: $1897.0<br>Beds: 1.0<br> Baths: 1.0,50,4,0,4,1.4349213650174129
26,26,https://chicago.craigslist.org/chc/apa/d/chicago-sunny-studio-big-closet-cats-ok/6853459657.html,"Sunny studio, big closet, cats ok, e-z walk to L",Apr  4,41.928232,-87.709356,,0.0,1.0,,,1150.0,price: $1150.0<br>Beds: 0.0<br> Baths: 1.0,37,1,0,1,4.928401088701374
27,27,https://chicago.craigslist.org/chc/apa/d/chicago-stunning-3-bed-2-bath-unit-in/6847257001.html,Stunning 3 bed 2 bath unit in North Center,Apr  4,41.937732,-87.685655,,3.0,2.0,,,2495.0,price: $2495.0<br>Beds: 3.0<br> Baths: 2.0,2,2,0,0,4.695127530413919
28,28,https://chicago.craigslist.org/chc/apa/d/chicago-2-bedroom-condo-parking-lincoln/6845043777.html,2 Bedroom Condo w/Parking Lincoln Park,Apr  4,41.922132,-87.638453,,2.0,1.0,,,1850.0,price: $1850.0<br>Beds: 2.0<br> Baths: 1.0,17,1,0,0,3.0002740577973923
29,29,https://chicago.craigslist.org/chc/apa/d/chicago-gorgeous-river-north-2br-2ba/6858264455.html,GORGEOUS River North 2BR/2BA with Laundry In Unit- available now!,Apr  4,41.896432,-87.643053,,2.0,2.0,,,2950.0,price: $2950.0<br>Beds: 2.0<br> Baths: 2.0,15,2,0,4,1.2324606110736358
30,30,https://chicago.craigslist.org/chc/apa/d/chicago-huge-3-bedroom-on-logan-blvd/6836046908.html,"Huge 3 bedroom on Logan Blvd, closets galore, close to S'bucks",Apr  4,41.927979,-87.698584,,3.0,1.0,1500.0,"['available may 1', 'cats are OK - purrr', 'dogs are OK - wooof', 'apartment', 'laundry in bldg', 'off-street parking']",2395.0,price: $2395.0<br>Beds: 3.0<br> Baths: 1.0,38,1,0,2,4.532950812048452
31,31,https://chicago.craigslist.org/chc/apa/d/chicago-huge-2-bed-with-gym-storage/6858264554.html,"Huge 2 bed with gym, storage, bike room, lounge, dry cleaning, huge pa",Apr  4,41.945601,-87.659274,,2.0,1.0,,,2050.0,price: $2050.0<br>Beds: 2.0<br> Baths: 1.0,26,1,0,4,4.720954198006404
32,32,https://chicago.craigslist.org/chc/apa/d/chicago-basic-1-bed-small-kitchen-cats/6853472147.html,"Basic 1 bed, small kitchen, cats ok, e-z walk to L",Apr  4,41.927525,-87.709544,,1.0,1.0,,,1195.0,price: $1195.0<br>Beds: 1.0<br> Baths: 1.0,35,1,0,1,4.901676450530201
33,33,https://chicago.craigslist.org/chc/apa/d/chicago-beautiful-1-bedroom-1-bath/6848891486.html,Beautiful 1 bedroom 1 bath Condo in Old Town,Apr  4,41.9033,-87.6336,,1.0,1.0,,,1700.0,price: $1700.0<br>Beds: 1.0<br> Baths: 1.0,40,4,0,4,1.7330709873443655
34,34,https://chicago.craigslist.org/chc/apa/d/chicago-top-floor-studio-exposed-brick/6853349261.html,"Top floor studio w/ exposed brick, pets ok, 0.4 mi to L",Apr  4,41.924532,-87.710756,,0.0,1.0,,,1095.0,price: $1095.0<br>Beds: 0.0<br> Baths: 1.0,18,1,0,1,4.808697988977123
35,35,https://chicago.craigslist.org/chc/apa/d/chicago-duplex-in-lincoln-park-3/6850897781.html,Duplex in Lincoln Park 3 bedroom 2 bath,Apr  4,41.923532,-87.661054,,3.0,2.0,,,2600.0,price: $2600.0<br>Beds: 3.0<br> Baths: 2.0,16,4,0,4,3.2740276785899236
36,36,https://chicago.craigslist.org/chc/apa/d/chicago-section-8-welcome-2-bedroom-2/6850890763.html,Section 8 Welcome: 2 bedroom 2 bath unit in Lincoln Park,Apr  4,41.922932,-87.641553,,2.0,2.0,,,2300.0,price: $2300.0<br>Beds: 2.0<br> Baths: 2.0,24,6,0,2,3.0546871662207242
37,37,https://chicago.craigslist.org/chc/apa/d/chicago-beautiful-modern-east-lakeview/6849739471.html,***BEAUTIFUL MODERN EAST LAKEVIEW CONVERTIBLE / JR 1-BED!***,Apr  4,41.951532,-87.649755,,0.0,1.0,570.0,"['available apr 4', 'cats are OK - purrr', 'dogs are OK - wooof', 'apartment', 'w/d in unit', 'no smoking', 'attached garage']",1925.0,price: $1925.0<br>Beds: 0.0<br> Baths: 1.0,8,7,0,2,5.052111681844463
38,38,https://chicago.craigslist.org/chc/apa/d/chicago-great-studios-milwaukee/6853303704.html,"Great studios @ Milwaukee/Diversey. Steps to L, Cats OK, Elevator",Apr  4,41.931679,-87.711294,,0.0,1.0,,,995.0,price: $995.0<br>Beds: 0.0<br> Baths: 1.0,27,2,0,2,5.1662072531246634
39,39,https://chicago.craigslist.org/chc/apa/d/chicago-stunning-lakeview-studio-june-1/6858264792.html,Stunning Lakeview Studio June 1,Apr  4,41.938232,-87.649354,,0.0,1.0,,,1235.0,price: $1235.0<br>Beds: 0.0<br> Baths: 1.0,50,5,0,3,4.136645197113894
40,40,https://chicago.craigslist.org/chc/apa/d/chicago-place-to-call-home-3-bedroom-2/6850904858.html,A place to call home: 3 bedroom 2 bath in West Ridge,Apr  4,41.997731,-87.691318,,3.0,2.0,,,2000.0,price: $2000.0<br>Beds: 3.0<br> Baths: 2.0,18,0,0,0,8.626128565122944
41,41,https://chicago.craigslist.org/chc/apa/d/chicago-spacious-3-bedroom-3-bathroom/6858264856.html,"SPACIOUS 3 BEDROOM 3 BATHROOM ** UPDATED KITCHEN, STAINLESS STEEL APPL",Apr  4,41.932232,-87.678255,,3.0,3.0,1800.0,"['available apr 4', 'cats are OK - purrr', 'apartment', 'off-street parking']",2775.0,price: $2775.0<br>Beds: 3.0<br> Baths: 3.0,0,2,0,0,4.179158770113971
42,42,https://chicago.craigslist.org/chc/apa/d/chicago-spacious-2-bed-steps-to/6847089261.html,"Spacious 2 Bed steps to Monument and L, Pets OK",Apr  4,41.927678,-87.707713,,2.0,1.0,,,1795.0,price: $1795.0<br>Beds: 2.0<br> Baths: 1.0,38,1,0,2,4.841173736032862
43,43,https://chicago.craigslist.org/chc/apa/d/chicago-beautiful-unit-in-river-north/6848899531.html,Beautiful Unit in River North,Apr  4,41.8923,-87.6373,,1.0,1.0,,,2100.0,price: $2100.0<br>Beds: 1.0<br> Baths: 1.0,50,1,0,10,0.951593160221594
44,44,https://chicago.craigslist.org/chc/apa/d/chicago-beautiful-uptown-unit-1-bedroom/6848882144.html,Beautiful Uptown Unit: 1 bedroom with parking included,Apr  4,41.973631,-87.664856,,1.0,1.0,,,1449.0,price: $1449.0<br>Beds: 1.0<br> Baths: 1.0,17,1,0,6,6.674813346055004
45,45,https://chicago.craigslist.org/chc/apa/d/chicago-top-floor-sunny-studio-in-great/6853338441.html,"Top floor sunny studio in great building, e-z walk to L",Apr  4,41.92846,-87.712376,,0.0,1.0,,,1040.0,price: $1040.0<br>Beds: 0.0<br> Baths: 1.0,32,0,0,1,5.051985207816029
46,46,https://chicago.craigslist.org/chc/apa/d/chicago-luxurious-1-bedroom-apartment/6858211031.html,"Luxurious, 1-Bedroom Apartment in Pet-Friendly Building",Apr  4,41.900532,-87.632953,,1.0,1.0,,,1734.0,price: $1734.0<br>Beds: 1.0<br> Baths: 1.0,46,5,0,4,1.5539777534509809
47,47,https://chicago.craigslist.org/chc/apa/d/chicago-1-bed-1-bath-old-town-laundry/6858265036.html,1 Bed 1 Bath: Old Town / Laundry in Unit / New Rehab / Pet Friendly,Apr  4,41.9229,-87.6483,,1.0,1.0,823.0,"['available apr 4', 'cats are OK - purrr', 'dogs are OK - wooof', 'apartment', 'w/d in unit', 'attached garage']",2289.0,price: $2289.0<br>Beds: 1.0<br> Baths: 1.0,27,8,0,2,3.0793667964517395
48,48,https://chicago.craigslist.org/chc/apa/d/chicago-superb-1-bedroom-1-bath-in/6848888786.html,Superb 1 bedroom 1 bath in Lincoln Park,Apr  4,41.921632,-87.663354,,1.0,1.0,,,1700.0,price: $1700.0<br>Beds: 1.0<br> Baths: 1.0,15,5,0,3,3.1922487912494866
49,49,https://chicago.craigslist.org/chc/apa/d/chicago-new-remodel-2-bed-in-humboldt/6850173232.html,New remodel 2 bed in Humboldt Park,Apr  4,41.909412,-87.707214,,2.0,1.0,,,1450.0,price: $1450.0<br>Beds: 2.0<br> Baths: 1.0,6,3,0,0,4.040303790766446
50,50,https://chicago.craigslist.org/chc/apa/d/chicago-awesome-1-bedroom-in-lincoln/6848878735.html,Awesome 1 bedroom in Lincoln Park available May 1st,Apr  4,41.928632,-87.642454,,1.0,0.0,,,1425.0,price: $1425.0<br>Beds: 1.0<br> Baths: 0.0,33,7,0,3,3.449342679198618
51,51,https://chicago.craigslist.org/chc/apa/d/chicago-unbelievable-gut-rehab-home/6853449999.html,UNBELIEVABLE GUT REHAB HOME - HEART OF ANDERSONVILLE,Apr  4,41.985231,-87.673256,,1.0,1.0,,,1550.0,price: $1550.0<br>Beds: 1.0<br> Baths: 1.0,6,5,0,0,7.5477355168668065
52,52,https://chicago.craigslist.org/chc/apa/d/chicago-absolutely-huge-vintage-one-bed/6847051822.html,"Absolutely huge vintage one bed, pets ok, no deposit, owners ad",Apr  4,41.925359,-87.709455,,1.0,1.0,,,1550.0,price: $1550.0<br>Beds: 1.0<br> Baths: 1.0,25,1,0,1,4.796705051983773
53,55,https://chicago.craigslist.org/chc/apa/d/chicago-amazing-north-center-3bedroom-2/6847252698.html,AMAZING North Center 3bedroom 2 bath Unit,Apr  4,41.954332,-87.676456,,3.0,2.0,,,2399.0,price: $2399.0<br>Beds: 3.0<br> Baths: 2.0,6,2,0,3,5.542591856409621
54,56,https://chicago.craigslist.org/chc/apa/d/chicago-great-city-view-of-michigan-ave/6841398289.html,Great City View of Michigan Ave from this Furnished 3 Bed | June 1st,Apr  4,41.884529,-87.624485,,3.0,2.0,,,3595.0,price: $3595.0<br>Beds: 3.0<br> Baths: 2.0,50,1,0,19,0.9071508079008936
55,57,https://chicago.craigslist.org/chc/apa/d/chicago-electronic-entry-system-plush/6853464422.html,"Electronic entry system, Plush carpeting, Dishwashers",Apr  4,41.773523,-87.568287,,0.0,1.0,400.0,['apartment'],852.0,price: $852.0<br>Beds: 0.0<br> Baths: 1.0,0,0,0,2,8.152547691813112
56,58,https://chicago.craigslist.org/chc/apa/d/chicago-4-bed-central-air-big-living-rm/6841558599.html,"4 bed, central air, big living rm, dishwasher, pets ok, owner ad",Apr  4,41.909004,-87.707214,,4.0,1.0,1500.0,"['available apr 1', 'cats are OK - purrr', 'dogs are OK - wooof', 'apartment', 'laundry in bldg', 'off-street parking']",1895.0,price: $1895.0<br>Beds: 4.0<br> Baths: 1.0,6,3,0,0,4.025599586729591
57,59,https://chicago.craigslist.org/chc/apa/d/chicago-beautiful-1-bedroom-1-bath-unit/6841071383.html,Beautiful 1 bedroom 1 bath unit in West Rogers Park,Apr  4,42.016732,-87.690572,,1.0,1.0,,,1000.0,price: $1000.0<br>Beds: 1.0<br> Baths: 1.0,4,3,0,0,9.873913103209182
58,60,https://chicago.craigslist.org/chc/apa/d/chicago-rarely-available-studio-july-1/6845370899.html,Rarely Available Studio | July 1 | Lots of Sun,Apr  4,41.884529,-87.624485,,0.0,1.0,,,1675.0,price: $1675.0<br>Beds: 0.0<br> Baths: 1.0,50,1,0,19,0.9071508079008936
59,61,https://chicago.craigslist.org/chc/apa/d/chicago-3-bed-with-great-kitchen-close/6834361516.html,"3 bed with great kitchen, close to #72 bus and park",Apr  4,41.908986,-87.707191,,3.0,1.0,,,1595.0,price: $1595.0<br>Beds: 3.0<br> Baths: 1.0,6,3,0,0,4.023944169084365
60,62,https://chicago.craigslist.org/chc/apa/d/chicago-stunning-sun-filled-gold-coast/6848894415.html,Stunning Sun Filled Gold Coast,Apr  4,41.909532,-87.631853,,1.0,1.0,,,1800.0,price: $1800.0<br>Beds: 1.0<br> Baths: 1.0,29,5,0,2,2.1726200951130386
61,63,https://chicago.craigslist.org/chc/apa/d/chicago-basic-1-bed-ez-walk-to-cats-ok/6851052936.html,"Basic 1 bed, ez walk to L, cats ok, no deposit",Apr  4,41.928232,-87.709356,,1.0,1.0,,,1250.0,price: $1250.0<br>Beds: 1.0<br> Baths: 1.0,37,1,0,1,4.928401088701374
62,64,https://chicago.craigslist.org/chc/apa/d/chicago-beautiful-2-bedroom-2-bath-unit/6850888666.html,Beautiful 2 bedroom 2 bath unit in Lincoln Park,Apr  4,41.922932,-87.641553,,2.0,2.0,,,2300.0,price: $2300.0<br>Beds: 2.0<br> Baths: 2.0,24,6,0,2,3.0546871662207242
63,65,https://chicago.craigslist.org/chc/apa/d/chicago-amazing-views-heat-and-water/6858265597.html,AMAZING VIEWS! HEAT AND WATER INCLUDED!!,Apr  4,41.987631,-87.655556,,1.0,1.0,,,1275.0,price: $1275.0<br>Beds: 1.0<br> Baths: 1.0,5,1,0,3,7.561876954182116
64,66,https://chicago.craigslist.org/chc/apa/d/chicago-gorgeous-lakeview-unit-2/6837884746.html,Gorgeous Lakeview Unit: 2 bedroom 1 bath,Apr  4,41.938232,-87.654254,,2.0,1.0,,,2000.0,price: $2000.0<br>Beds: 2.0<br> Baths: 1.0,35,4,0,4,4.172469824676237
65,67,https://chicago.craigslist.org/chc/apa/d/chicago-spacious-new-3-bd-with-d-in/6845496538.html,"Spacious new 3 bd, with W/D in unit, all new! Dining room, too!",Apr  4,41.934231,-87.716056,,3.0,1.0,1500.0,"['available mar 20', 'cats are OK - purrr', 'dogs are OK - wooof', 'apartment', 'w/d in unit', 'street parking']",2295.0,price: $2295.0<br>Beds: 3.0<br> Baths: 1.0,12,1,0,2,5.463931951478055
66,68,https://chicago.craigslist.org/chc/apa/d/chicago-2-bedroom-condo-parking-lincoln/6845065380.html,2 Bedroom Condo w/Parking Lincoln Park,Apr  4,41.928732,-87.670855,,2.0,1.0,,,2100.0,price: $2100.0<br>Beds: 2.0<br> Baths: 1.0,4,3,0,0,3.794573347434448
67,69,https://chicago.craigslist.org/chc/apa/d/chicago-beautiful-2-bedroom-in-lincoln/6848863524.html,Beautiful 2 Bedroom in Lincoln Park,Apr  4,41.926058,-87.66758,,2.0,1.0,,,2400.0,price: $2400.0<br>Beds: 2.0<br> Baths: 1.0,15,4,0,0,3.557695534106147
68,70,https://chicago.craigslist.org/chc/apa/d/chicago-perfect-junior-1-bed-in-amazing/6839296435.html,"***PERFECT JUNIOR 1-BED IN AMAZING LOCATION! RED LINE, SHOPPING!***",Apr  4,41.907932,-87.648453,,1.0,1.0,715.0,"['available apr 4', 'cats are OK - purrr', 'dogs are OK - wooof', 'apartment', 'w/d in unit', 'no smoking', 'attached garage']",2286.0,price: $2286.0<br>Beds: 1.0<br> Baths: 1.0,15,2,0,2,2.061370226772716
69,71,https://chicago.craigslist.org/chc/apa/d/chicago-stunning-duplex-4-bedrom-2-bath/6847262436.html,Stunning Duplex: 4 bedrom 2 bath in Roscoe Village,Apr  4,41.943332,-87.678555,,4.0,2.0,,,2900.0,price: $2900.0<br>Beds: 4.0<br> Baths: 2.0,10,4,0,2,4.876256869368113
70,72,https://chicago.craigslist.org/chc/apa/d/chicago-beautiful-3-bedroom-2-bath-unit/6837892775.html,Beautiful 3 bedroom 2 bath unit in Logan Square,Apr  4,41.926331,-87.723057,,3.0,2.0,,,1495.0,price: $1495.0<br>Beds: 3.0<br> Baths: 2.0,6,4,0,1,5.376048276173618
71,73,https://chicago.craigslist.org/chc/apa/d/chicago-3-bedroom-2-bath-condo-parking/6847207381.html,3 bedroom 2 bath Condo w Parking,Apr  4,41.895932,-87.700755,,3.0,2.0,,,1900.0,price: $1900.0<br>Beds: 3.0<br> Baths: 2.0,4,1,0,1,3.327455487663113
72,74,https://chicago.craigslist.org/chc/apa/d/chicago-gorgeous-studio-in-the-heart-of/6858266069.html,Gorgeous Studio in the Heart of DePaul!,Apr  4,41.928932,-87.658854,,0.0,1.0,,,1250.0,price: $1250.0<br>Beds: 0.0<br> Baths: 1.0,17,1,0,3,3.596948686920457
73,76,https://chicago.craigslist.org/chc/apa/d/chicago-ukrainian-village-duplex-3/6847216927.html,Ukrainian Village Duplex: 3 bedroom 3baths,Apr  4,41.906632,-87.694655,,3.0,3.0,,,2900.0,price: $2900.0<br>Beds: 3.0<br> Baths: 3.0,9,3,0,0,3.3947127140663693
74,77,https://chicago.craigslist.org/chc/apa/d/chicago-stunning-andersonville-unit-3/6847273944.html,Stunning Andersonville Unit: 3 bedroom 2 bath,Apr  4,41.975431,-87.668656,,3.0,2.0,,,2900.0,price: $2900.0<br>Beds: 3.0<br> Baths: 2.0,15,1,0,5,6.8358116580440935
75,78,https://chicago.craigslist.org/chc/apa/d/chicago-renovated-studio-in-rogers-park/6858266253.html,Renovated Studio in Rogers Park w/ No Security deposit. Near Red Line!,Apr  4,42.007933,-87.668245,,0.0,1.0,,,895.0,price: $895.0<br>Beds: 0.0<br> Baths: 1.0,11,3,0,4,9.037598466543406
76,79,https://chicago.craigslist.org/chc/apa/d/chicago-stunning-uptown-duplex-4/6847269956.html,Stunning Uptown Duplex: 4 bedroom 3 bath,Apr  4,41.965532,-87.664155,,4.0,3.0,,,3200.0,price: $3200.0<br>Beds: 4.0<br> Baths: 3.0,11,3,0,6,6.119307062047887
77,81,https://chicago.craigslist.org/chc/apa/d/chicago-spacious-2-bedroom-in-lakeview/6837880878.html,Spacious 2 bedroom in Lakeview,Apr  4,41.940132,-87.649354,,2.0,1.5,,,1900.0,price: $1900.0<br>Beds: 2.0<br> Baths: 1.5,50,5,0,4,4.267023570988003
78,82,https://chicago.craigslist.org/chc/apa/d/chicago-renovated-studio-in-rogers-park/6858266408.html,Renovated Studio in Rogers Park w/ No Security Deposit - Close to Red Line!,Apr  4,42.007933,-87.668245,,0.0,1.0,,,925.0,price: $925.0<br>Beds: 0.0<br> Baths: 1.0,11,3,0,4,9.037598466543406
79,83,https://chicago.craigslist.org/chc/apa/d/chicago-luxurious-one-bed-apartment/6858266425.html,Luxurious One Bed Apartment with Amazing Views of the City,Apr  4,41.896732,-87.625652,,1.0,1.0,,,1887.0,price: $1887.0<br>Beds: 1.0<br> Baths: 1.0,50,4,0,5,1.454983079138167
80,84,https://chicago.craigslist.org/chc/apa/d/chicago-huge-2-bedroom-2-bath-unit-in/6853850619.html,Huge 2 bedroom 2 bath unit in Lincoln Square,Apr  4,41.977131,-87.679656,,2.0,2.0,,,1775.0,price: $1775.0<br>Beds: 2.0<br> Baths: 2.0,2,4,0,1,7.090510288086714
81,85,https://chicago.craigslist.org/chc/apa/d/chicago-lakefront-1brden-condo-most/6858266503.html,LakeFront 1BR+Den Condo w/ Most Util Incl-Views|Updated|Near Stores!,Apr  4,41.944058,-87.645278,,1.0,1.0,1000.0,"['available apr 4', 'condo', 'laundry in bldg', 'street parking']",1800.0,price: $1800.0<br>Beds: 1.0<br> Baths: 1.0,30,3,0,3,4.5199008684010975
82,86,https://chicago.craigslist.org/chc/apa/d/chicago-beautiful-2-bedroom-2-bath-unit/6853848909.html,Beautiful 2 bedroom 2 bath unit in Ravenswood,Apr  4,41.9754,-87.726871,,2.0,2.0,,,1525.0,price: $1525.0<br>Beds: 2.0<br> Baths: 2.0,0,1,0,0,8.022134176089887
83,87,https://chicago.craigslist.org/chc/apa/d/chicago-your-new-home-awaits-in-this/6843110305.html,***YOUR NEW HOME AWAITS IN THIS SOUTH LOOP GEM! CALL ME FOR A TOUR!***,Apr  4,41.851133,-87.623851,,1.0,1.0,935.0,"['available apr 4', 'cats are OK - purrr', 'dogs are OK - wooof', 'apartment', 'w/d in unit', 'no smoking', 'attached garage']",2005.0,price: $2005.0<br>Beds: 1.0<br> Baths: 1.0,3,2,0,5,2.0828321000017396
84,88,https://chicago.craigslist.org/chc/apa/d/chicago-amazing-duplex-in-lincoln/6853847613.html,Amazing Duplex in Lincoln Square 3 bedrooms 2.5 baths,Apr  4,41.969731,-87.693857,,3.0,2.5,,,2100.0,price: $2100.0<br>Beds: 3.0<br> Baths: 2.5,11,1,0,3,6.861060800587517
85,89,https://chicago.craigslist.org/chc/apa/d/chicago-spectacular-lincoln-unit-no/6858266621.html,Spectacular Lincoln Unit: No Security Deposit,Apr  4,41.929732,-87.643154,,1.0,1.0,,,1900.0,price: $1900.0<br>Beds: 1.0<br> Baths: 1.0,38,5,0,3,3.5265668687688905
86,90,https://chicago.craigslist.org/chc/apa/d/chicago-unique-first-floor-1-bedroom/6852987909.html,--- UNIQUE FIRST FLOOR 1 BEDROOM - BRAND NEW REHAB ---,Apr  4,41.9909,-87.6629,,1.0,1.0,,,1550.0,price: $1550.0<br>Beds: 1.0<br> Baths: 1.0,13,5,0,3,7.833360223095645
87,91,https://chicago.craigslist.org/chc/apa/d/chicago-lakeview-2-bedroom/6858266874.html,Lakeview 2 bedroom,Apr  4,41.938217,-87.655513,,2.0,1.0,,,1475.0,price: $1475.0<br>Beds: 2.0<br> Baths: 1.0,30,4,0,4,4.183054925555176
88,92,https://chicago.craigslist.org/chc/apa/d/chicago-recycling-center-optional-in/6850149215.html,"Recycling center, Optional in-home bicycle wall mount, Bicycle storage",Apr  4,41.871551,-87.630608,,2.0,2.0,1264.0,"['cats are OK - purrr', 'apartment', 'w/d in unit', 'attached garage']",3028.0,price: $3028.0<br>Beds: 2.0<br> Baths: 2.0,29,2,1,15,0.7013738421682101
89,93,https://chicago.craigslist.org/chc/apa/d/chicago-granite-and-stainless-brand-new/6858266981.html,GRANITE AND STAINLESS!! BRAND NEW REMODEL!!,Apr  4,41.987631,-87.655556,,1.0,1.0,,,1350.0,price: $1350.0<br>Beds: 1.0<br> Baths: 1.0,5,1,0,3,7.561876954182116
90,94,https://chicago.craigslist.org/chc/apa/d/chicago-lakeview-1bd-by-wrigley-no-sec/6854983334.html,"Lakeview 1bd by Wrigley! No Sec Dep, Pets OK! Red EL, Jewel, Target!",Apr  4,41.945532,-87.654455,,1.0,1.0,,,1395.0,price: $1395.0<br>Beds: 1.0<br> Baths: 1.0,35,2,0,4,4.671395870717761
91,95,https://chicago.craigslist.org/chc/apa/d/chicago-fall-in-love-with-your-new-home/6839888409.html,"***FALL IN LOVE WITH YOUR NEW HOME; FTC WINDOWS, LARGE CLOSETS!***",Apr  4,41.890932,-87.622052,,1.0,1.0,773.0,"['available apr 4', 'cats are OK - purrr', 'dogs are OK - wooof', 'apartment', 'w/d in unit', 'no smoking', 'attached garage']",2473.0,price: $2473.0<br>Beds: 1.0<br> Baths: 1.0,50,1,0,10,1.2621981332875036
92,96,https://chicago.craigslist.org/chc/apa/d/updated-lakeview-1bd-no-sec-dep-pets-ok/6854982860.html,"UPDATED Lakeview 1bd! No Sec Dep, Pets Ok! DW, HWF! Brown EL, Jewel!",Apr  4,41.959932,-87.669455,,1.0,1.0,,,1420.0,price: $1420.0<br>Beds: 1.0<br> Baths: 1.0,6,7,0,6,5.805246061543218
93,97,https://chicago.craigslist.org/chc/apa/d/chicago-lakeview-studio-by-p-el-no-sec/6854982443.html,"Lakeview Studio by B-P EL! No Sec Dep, Pets Ok! Heat, Gas, Elctric Inc",Apr  4,41.932832,-87.647854,,0.0,1.0,,,990.0,price: $990.0<br>Beds: 0.0<br> Baths: 1.0,45,4,0,4,3.7576594653955553
94,98,https://chicago.craigslist.org/chc/apa/d/chicago-stunning-short-term-1br/6858267538.html,Stunning short-term 1BR w/ European High End Furniture. Parking INCD,Apr  4,41.939732,-87.671155,,1.0,1.0,,,2475.0,price: $2475.0<br>Beds: 1.0<br> Baths: 1.0,9,4,0,3,4.502350929703833
95,99,https://chicago.craigslist.org/chc/apa/d/chicago-brand-new-luxury-1-bedroom-pick/6858267533.html,***BRAND NEW LUXURY 1 BEDROOM - PICK YOUR FLOOR PLAN***,Apr  4,41.975631,-87.655255,,1.0,1.0,,,1425.0,price: $1425.0<br>Beds: 1.0<br> Baths: 1.0,12,2,0,4,6.736569772977297
96,100,https://chicago.craigslist.org/chc/apa/d/chicago-the-pictures-prove-this-is-the/6858260299.html,-- THE PICTURES PROVE THIS IS THE ONE FOR YOU --,Apr  4,41.8923,-87.6373,,0.0,1.0,,,1750.0,price: $1750.0<br>Beds: 0.0<br> Baths: 1.0,50,1,0,10,0.951593160221594
97,101,https://chicago.craigslist.org/chc/apa/d/chicago-remodeled-ravenswood-studio-no/6854981979.html,"REMODELED Ravenswood Studio! No Sec Dep, Pets OK! B-EL, Mtra, Marianos",Apr  4,41.961531,-87.676156,,0.0,1.0,,,1095.0,price: $1095.0<br>Beds: 0.0<br> Baths: 1.0,17,7,0,4,6.008432998079169
98,102,https://chicago.craigslist.org/chc/apa/d/chicago-spacious-and-modern-logan/6858267691.html,Spacious and Modern Logan Square 3 Bedroom!,Apr  4,41.919232,-87.705356,,3.0,1.0,,,1750.0,price: $1750.0<br>Beds: 3.0<br> Baths: 1.0,15,3,0,1,4.360030760569797
99,103,https://chicago.craigslist.org/chc/apa/d/chicago-new-construction-2-bed-in/6843200352.html,***NEW CONSTRUCTION 2-BED IN CHICAGO'S HOTTEST NEIGHBORHOOD!***,Apr  4,41.876432,-87.647052,,2.0,2.0,909.0,"['available apr 4', 'cats are OK - purrr', 'dogs are OK - wooof', 'apartment', 'w/d in unit', 'no smoking', 'attached garage']",3000.0,price: $3000.0<br>Beds: 2.0<br> Baths: 2.0,23,2,2,4,0.3808026624430869
100,104,https://chicago.craigslist.org/chc/apa/d/chicago-2-bed-1-bath-for-year-lease/6858267749.html,"2 bed 1 bath for 1450$, 1 year lease, pets friendly, available May 1st",Apr  4,41.9909,-87.6629,,2.0,1.0,900.0,"['available may 1', '\n                        ', '\n                    ', '\n                        ', '\n                    ', '\n                        ', '\n                    ', 'cats are OK - purrr', 'dogs are OK - wooof', 'condo', 'w/d in unit', 'no smoking', 'street parking', 'wheelchair accessible']",1450.0,price: $1450.0<br>Beds: 2.0<br> Baths: 1.0,13,5,0,3,7.833360223095645
101,105,https://chicago.craigslist.org/chc/apa/d/chicago-ravenswood-studio-by-marianos/6854981528.html,"Ravenswood Studio by Marianos, B-EL, Metra! No Sec Dep, Pets OK!",Apr  4,41.968931,-87.672856,,0.0,1.0,,,1000.0,price: $1000.0<br>Beds: 0.0<br> Baths: 1.0,11,1,0,3,6.4506036618748
102,106,https://chicago.craigslist.org/chc/apa/d/chicago-gorgeous-remodel-available-now/6858267863.html,GORGEOUS REMODEL!!  AVAILABLE NOW!!,Apr  4,41.987631,-87.655556,,1.0,1.0,,,1550.0,price: $1550.0<br>Beds: 1.0<br> Baths: 1.0,5,1,0,3,7.561876954182116
103,107,https://chicago.craigslist.org/chc/apa/d/chicago-fall-in-love-with-your-new-home/6843196964.html,"***FALL IN LOVE WITH YOUR NEW HOME; FTC WINDOWS, LARGE CLOSETS!***",Apr  4,41.890932,-87.622052,,1.0,1.0,773.0,"['available apr 4', 'cats are OK - purrr', 'dogs are OK - wooof', 'apartment', 'w/d in unit', 'no smoking', 'attached garage']",2473.0,price: $2473.0<br>Beds: 1.0<br> Baths: 1.0,50,1,0,10,1.2621981332875036
104,108,https://chicago.craigslist.org/chc/apa/d/chicago-must-see-studio-in-the-most/6852986918.html,MUST SEE STUDIO IN THE MOST UNIQUE NEW BUILDING IN UPTOWN,Apr  4,41.973527,-87.656545,,0.0,1.0,,,1410.0,price: $1410.0<br>Beds: 0.0<br> Baths: 1.0,13,3,0,5,6.600319344529515
105,109,https://chicago.craigslist.org/chc/apa/d/chicago-lincoln-park-studio-available/6841574452.html,Lincoln Park Studio Available,Apr  4,41.930651,-87.640868,,0.0,1.0,,,1220.0,price: $1220.0<br>Beds: 0.0<br> Baths: 1.0,30,5,0,1,3.587087247948611
106,110,https://chicago.craigslist.org/chc/apa/d/chicago-lincoln-park-studio-available/6841308836.html,Lincoln Park Studio Available,Apr  4,41.930651,-87.640868,,0.0,1.0,,,1220.0,price: $1220.0<br>Beds: 0.0<br> Baths: 1.0,30,5,0,1,3.587087247948611
107,111,https://chicago.craigslist.org/chc/apa/d/chicago-3-bedroom-available-in-lakeview/6844613223.html,3 Bedroom available in Lakeview,Apr  4,41.933797,-87.639554,,3.0,2.0,,,2465.0,price: $2465.0<br>Beds: 3.0<br> Baths: 2.0,24,2,0,0,3.8043779108893663
108,112,https://chicago.craigslist.org/chc/apa/d/chicago-prime-lake-view-location/6858167817.html,Prime Lake View Location - 925 W. Newport Ave #925-G,Apr  4,41.944632,-87.654455,,3.0,2.0,,,2395.0,price: $2395.0<br>Beds: 3.0<br> Baths: 2.0,39,2,0,4,4.61002390507628
109,113,https://chicago.craigslist.org/chc/apa/d/chicago-modern-2-bedroom-1-bathroom/6858268616.html,Modern 2 Bedroom/1 Bathroom Apartment at Humboldt Park,Apr  4,41.913638,-87.699152,,2.0,1.0,,,1600.0,price: $1600.0<br>Beds: 2.0<br> Baths: 1.0,13,2,0,2,3.868815213200081
110,114,https://chicago.craigslist.org/chc/apa/d/chicago-incredible-streeterville-pet/6858268610.html,Incredible Streeterville Pet Friendly 2Bed/2bath.  InUnit W/D.  Spa.,Apr  4,41.890932,-87.622752,,2.0,2.0,1217.0,"['available may 8', 'apartment', 'w/d in unit']",3268.0,price: $3268.0<br>Beds: 2.0<br> Baths: 2.0,50,1,0,10,1.2356922398154255
111,115,https://chicago.craigslist.org/chc/apa/d/chicago-studio-on-diversey-available/6841337705.html,Studio on Diversey Available,Apr  4,41.933008,-87.640019,,0.0,1.0,,,915.0,price: $915.0<br>Beds: 0.0<br> Baths: 1.0,26,3,0,0,3.749735892939505
112,116,https://chicago.craigslist.org/chc/apa/d/gold-coaststudiorenovatedno-security/6858270549.html,Gold Coast*Studio*Renovated*No Security Deposit*Avail 4/10,Apr  4,41.899232,-87.621571,,0.0,1.0,,,1315.0,price: $1315.0<br>Beds: 0.0<br> Baths: 1.0,37,2,0,3,1.7136013016749025
113,117,https://chicago.craigslist.org/chc/apa/d/chicago-gorgeous-2bd-in-albany-park-in/6858270851.html,Gorgeous 2BD in Albany Park w/ In Unit Laundry. Steps to Brown line!,Apr  4,41.966531,-87.715857,,2.0,1.0,,,1300.0,price: $1300.0<br>Beds: 2.0<br> Baths: 1.0,2,1,0,2,7.200178534240815
114,118,https://chicago.craigslist.org/chc/apa/d/chicago-1-bed-1-bath-old-town-laundry/6858270849.html,1 Bed 1 Bath: Old Town / Laundry in Unit / New Rehab,Apr  4,41.9229,-87.6483,,2.0,2.0,823.0,"['available apr 4', 'cats are OK - purrr', 'dogs are OK - wooof', 'apartment', 'w/d in unit', 'attached garage']",3318.0,price: $3318.0<br>Beds: 2.0<br> Baths: 2.0,27,8,0,2,3.0793667964517395
115,119,https://chicago.craigslist.org/chc/apa/d/chicago-wi-fi-in-lobby-steps-to-park/6853600279.html,"Wi-Fi in lobby, Steps to park, lake and beach, Flexible lease terms",Apr  4,41.7813,-87.6051,,1.0,0.0,460.0,['apartment'],1394.0,price: $1394.0<br>Beds: 1.0<br> Baths: 0.0,1,5,0,2,6.964569622335744
116,120,https://chicago.craigslist.org/chc/apa/d/chicago-spacious-1-bedden-balcony-in/6847307928.html,***SPACIOUS 1-BED+DEN w/ BALCONY IN QUIET PART OF RIVER NORTH!***,Apr  4,41.894732,-87.641553,,1.0,1.0,825.0,"['available apr 4', 'cats are OK - purrr', 'dogs are OK - wooof', 'apartment', 'w/d in unit', 'no smoking', 'attached garage']",2340.0,price: $2340.0<br>Beds: 1.0<br> Baths: 1.0,21,2,0,4,1.108805202683776
117,121,https://chicago.craigslist.org/chc/apa/d/chicago-modern-studio-available/6849999989.html,Modern studio available,Apr  4,41.933008,-87.640019,,0.0,1.0,,,1230.0,price: $1230.0<br>Beds: 0.0<br> Baths: 1.0,26,3,0,0,3.749735892939505
118,122,https://chicago.craigslist.org/chc/apa/d/chicago-modern-studio-available/6845360856.html,Modern studio available,Apr  4,41.933008,-87.640019,,0.0,1.0,,,1230.0,price: $1230.0<br>Beds: 0.0<br> Baths: 1.0,26,3,0,0,3.749735892939505
119,123,https://chicago.craigslist.org/chc/apa/d/chicago-lincoln-park-studio-available/6843643327.html,Lincoln Park Studio Available,Apr  4,41.930651,-87.640868,,0.0,1.0,,,1220.0,price: $1220.0<br>Beds: 0.0<br> Baths: 1.0,30,5,0,1,3.587087247948611
120,124,https://chicago.craigslist.org/chc/apa/d/chicago-large-living-room-city-views/6858269022.html,LARGE LIVING ROOM !! CITY VIEWS!!,Apr  4,41.987631,-87.655556,,1.0,1.0,,,1265.0,price: $1265.0<br>Beds: 1.0<br> Baths: 1.0,5,1,0,3,7.561876954182116
121,125,https://chicago.craigslist.org/chc/apa/d/chicago-hot-division-damen-location/6858269428.html,Hot Division / Damen location,Apr  4,41.903232,-87.677254,,3.0,1.0,,,2550.0,price: $2550.0<br>Beds: 3.0<br> Baths: 1.0,41,5,0,2,2.544926775715172
122,126,https://chicago.craigslist.org/chc/apa/d/chicago-gorgeous-1-bedroom-unit/6854731193.html,Gorgeous 1 bedroom unit,Apr  4,41.915151,-87.672744,,1.0,1.0,740.0,"['available may 1', 'cats are OK - purrr', 'dogs are OK - wooof', 'apartment', 'laundry on site', 'street parking']",1450.0,price: $1450.0<br>Beds: 1.0<br> Baths: 1.0,25,4,0,2,3.019004993104951
123,127,https://chicago.craigslist.org/chc/apa/d/chicago-great-upper-apartment-available/6849107923.html,Great Upper Apartment Available Now!!,Apr  4,41.7411,-87.6543,,1.0,1.0,,,800.0,price: $800.0<br>Beds: 1.0<br> Baths: 1.0,0,1,0,2,9.527903381956547
124,128,https://chicago.craigslist.org/chc/apa/d/chicago-this-is-the-brand-new-luxury-2/6858269569.html,***THIS IS THE BRAND NEW LUXURY 2 BED YOU'VE BEEN SEEKING***,Apr  4,41.8721,-87.6578,,2.0,2.0,,,4025.0,price: $4025.0<br>Beds: 2.0<br> Baths: 2.0,9,4,0,3,1.0085168139971645
125,129,https://chicago.craigslist.org/chc/apa/d/chicago-southport-corridore-loft-in-old/6858269696.html,Southport Corridore Loft in old Comed Substation - Duplex - 2 bed 2 ba,Apr  4,41.944587,-87.655533,,2.0,2.0,,,2500.0,price: $2500.0<br>Beds: 2.0<br> Baths: 2.0,30,2,0,4,4.616024354025006
126,130,https://chicago.craigslist.org/chc/apa/d/chicago-gorgeous-two-bed-apartment-with/6858269820.html,Gorgeous Two Bed Apartment With Picturesque Views of thew City AND Lak,Apr  4,41.897932,-87.631452,,2.0,1.0,,,2346.0,price: $2346.0<br>Beds: 2.0<br> Baths: 1.0,50,4,0,4,1.4036008248123384
127,131,https://chicago.craigslist.org/chc/apa/d/chicago-phenomenal-loop-studio-d-in/6858269836.html,"Phenomenal Loop Studio, W/D In Unit, Hdwd Floors, Pool, Pet friendly!",Apr  4,41.8858,-87.6181,,0.0,1.0,,,1650.0,price: $1650.0<br>Beds: 0.0<br> Baths: 1.0,15,0,0,13,1.2420370140912709
128,132,https://chicago.craigslist.org/chc/apa/d/chicago-beautiful-1br-with-new-kitchen/6858269862.html,Beautiful 1BR with New Kitchen in Albany Park!,Apr  4,41.9703,-87.7042,,1.0,1.0,,,1350.0,price: $1350.0<br>Beds: 1.0<br> Baths: 1.0,3,0,0,4,7.125694512501364
129,133,https://chicago.craigslist.org/chc/apa/d/chicago-brand-new-glorious-studio-with/6852985878.html,"^^^BRAND NEW GLORIOUS STUDIO WITH W/D, HDWD, GYM^^^",Apr  4,41.992631,-87.658656,,0.0,1.0,,,1075.0,price: $1075.0<br>Beds: 0.0<br> Baths: 1.0,13,2,0,3,7.922689187687864
130,134,https://chicago.craigslist.org/chc/apa/d/chicago-11th-floor-all-east-views/6858270466.html,11th Floor. All East views looking at Lake & Beach!,Apr  4,41.987631,-87.655556,,1.0,1.0,,,1495.0,price: $1495.0<br>Beds: 1.0<br> Baths: 1.0,5,1,0,3,7.561876954182116
131,135,https://chicago.craigslist.org/chc/apa/d/gold-coaststudiorenovatedno-security/6858270549.html,Gold Coast*Studio*Renovated*No Security Deposit*Avail 4/10,Apr  4,41.899232,-87.621571,,0.0,1.0,,,1315.0,price: $1315.0<br>Beds: 0.0<br> Baths: 1.0,37,2,0,3,1.7136013016749025
132,136,https://chicago.craigslist.org/chc/apa/d/chicago-lakeview-3-bedroom/6853852174.html,Lakeview 3 Bedroom,Apr  4,41.944537,-87.659419,,3.0,1.0,,,2100.0,price: $2100.0<br>Beds: 3.0<br> Baths: 1.0,27,1,0,4,4.650668095321389
133,137,https://chicago.craigslist.org/chc/apa/d/chicago-stay-gold-in-this-2-bedroom-2/6858210639.html,Stay Gold in this 2 Bedroom/2 Bathroom in the Heart of the Gold Coast,Apr  4,41.903132,-87.630153,,2.0,2.0,,,2881.0,price: $2881.0<br>Beds: 2.0<br> Baths: 2.0,42,4,0,4,1.7656951892780566
134,138,https://chicago.craigslist.org/chc/apa/d/chicago-gorgeous-lakeview-unit-2/6837883012.html,Gorgeous Lakeview Unit: 2 bedroom 1 bath,Apr  4,41.939132,-87.650154,,2.0,1.0,,,1950.0,price: $1950.0<br>Beds: 2.0<br> Baths: 1.0,50,5,0,4,4.203150801421777
135,139,https://chicago.craigslist.org/chc/apa/d/chicago-incredible-space-and-value/6839280002.html,***INCREDIBLE SPACE AND VALUE! GREAT 1-BED IN DOWNTOWN CHICAGO!***,Apr  4,41.888232,-87.622352,,1.0,1.0,795.0,"['available jul 20', 'cats are OK - purrr', 'dogs are OK - wooof', 'apartment', 'laundry in bldg', 'no smoking', 'valet parking']",1877.0,price: $1877.0<br>Beds: 1.0<br> Baths: 1.0,50,1,0,13,1.1332922234301932
136,140,https://chicago.craigslist.org/chc/apa/d/chicago-beautiful-2-bedroom-condo-in/6845071154.html,Beautiful 2 Bedroom Condo in Lincoln Park w/Parking,Apr  4,41.920132,-87.643953,,2.0,1.0,,,2400.0,price: $2400.0<br>Beds: 2.0<br> Baths: 1.0,27,3,0,2,2.866835206334867
137,141,https://chicago.craigslist.org/chc/apa/d/chicago-beautiful-apartment-small-dog-ok/6858264173.html,BEAUTIFUL APARTMENT !! SMALL DOG OK!!,Apr  4,41.987631,-87.655556,,1.0,1.0,,,1245.0,price: $1245.0<br>Beds: 1.0<br> Baths: 1.0,5,1,0,3,7.561876954182116
138,142,https://chicago.craigslist.org/chc/apa/d/chicago-brand-new-luxury-1-bedroom-pick/6858264218.html,***BRAND NEW LUXURY 1 BEDROOM - PICK YOUR FLOOR PLAN***,Apr  4,41.975631,-87.655255,,1.0,1.0,,,1425.0,price: $1425.0<br>Beds: 1.0<br> Baths: 1.0,12,2,0,4,6.736569772977297
139,143,https://chicago.craigslist.org/chc/apa/d/chicago-available-4bed-2-bth-home-for/6858264259.html,Available 4bed 2 bth Home For Rent!,Apr  4,41.946084,-87.822926,,4.0,2.0,1248.0,"['cats are OK - purrr', 'dogs are OK - wooof', 'house', 'w/d in unit', 'detached garage']",800.0,price: $800.0<br>Beds: 4.0<br> Baths: 2.0,0,1,0,0,10.473629674271491
140,144,https://chicago.craigslist.org/chc/apa/d/chicago-stunning-coach-house-in-wicker/6847237548.html,Stunning Coach-house in Wicker Park: 3 bedroom 2 bath,Apr  4,41.897732,-87.677154,,3.0,2.0,,,2995.0,price: $2995.0<br>Beds: 3.0<br> Baths: 2.0,19,3,0,2,2.3054764675803954
141,145,https://chicago.craigslist.org/chc/apa/d/chicago-1-bedroom-park-views-indoor/6858210203.html,1 Bedroom w/ Park Views & Indoor Pool in the heart of Chicago,Apr  4,41.897995,-87.629929,,1.0,1.0,,,1897.0,price: $1897.0<br>Beds: 1.0<br> Baths: 1.0,50,4,0,4,1.4349213650174129
142,146,https://chicago.craigslist.org/chc/apa/d/chicago-sunny-studio-big-closet-cats-ok/6853459657.html,"Sunny studio, big closet, cats ok, e-z walk to L",Apr  4,41.928232,-87.709356,,0.0,1.0,,,1150.0,price: $1150.0<br>Beds: 0.0<br> Baths: 1.0,37,1,0,1,4.928401088701374
143,147,https://chicago.craigslist.org/chc/apa/d/chicago-stunning-3-bed-2-bath-unit-in/6847257001.html,Stunning 3 bed 2 bath unit in North Center,Apr  4,41.937732,-87.685655,,3.0,2.0,,,2495.0,price: $2495.0<br>Beds: 3.0<br> Baths: 2.0,2,2,0,0,4.695127530413919
144,148,https://chicago.craigslist.org/chc/apa/d/chicago-2-bedroom-condo-parking-lincoln/6845043777.html,2 Bedroom Condo w/Parking Lincoln Park,Apr  4,41.922132,-87.638453,,2.0,1.0,,,1850.0,price: $1850.0<br>Beds: 2.0<br> Baths: 1.0,17,1,0,0,3.0002740577973923
145,149,https://chicago.craigslist.org/chc/apa/d/chicago-gorgeous-river-north-2br-2ba/6858264455.html,GORGEOUS River North 2BR/2BA with Laundry In Unit- available now!,Apr  4,41.896432,-87.643053,,2.0,2.0,,,2950.0,price: $2950.0<br>Beds: 2.0<br> Baths: 2.0,15,2,0,4,1.2324606110736358
146,150,https://chicago.craigslist.org/chc/apa/d/chicago-huge-3-bedroom-on-logan-blvd/6836046908.html,"Huge 3 bedroom on Logan Blvd, closets galore, close to S'bucks",Apr  4,41.927979,-87.698584,,3.0,1.0,1500.0,"['available may 1', 'cats are OK - purrr', 'dogs are OK - wooof', 'apartment', 'laundry in bldg', 'off-street parking']",2395.0,price: $2395.0<br>Beds: 3.0<br> Baths: 1.0,38,1,0,2,4.532950812048452
147,151,https://chicago.craigslist.org/chc/apa/d/chicago-huge-2-bed-with-gym-storage/6858264554.html,"Huge 2 bed with gym, storage, bike room, lounge, dry cleaning, huge pa",Apr  4,41.945601,-87.659274,,2.0,1.0,,,2050.0,price: $2050.0<br>Beds: 2.0<br> Baths: 1.0,26,1,0,4,4.720954198006404
148,152,https://chicago.craigslist.org/chc/apa/d/chicago-basic-1-bed-small-kitchen-cats/6853472147.html,"Basic 1 bed, small kitchen, cats ok, e-z walk to L",Apr  4,41.927525,-87.709544,,1.0,1.0,,,1195.0,price: $1195.0<br>Beds: 1.0<br> Baths: 1.0,35,1,0,1,4.901676450530201
149,153,https://chicago.craigslist.org/chc/apa/d/chicago-beautiful-1-bedroom-1-bath/6848891486.html,Beautiful 1 bedroom 1 bath Condo in Old Town,Apr  4,41.9033,-87.6336,,1.0,1.0,,,1700.0,price: $1700.0<br>Beds: 1.0<br> Baths: 1.0,40,4,0,4,1.7330709873443655
150,154,https://chicago.craigslist.org/chc/apa/d/chicago-top-floor-studio-exposed-brick/6853349261.html,"Top floor studio w/ exposed brick, pets ok, 0.4 mi to L",Apr  4,41.924532,-87.710756,,0.0,1.0,,,1095.0,price: $1095.0<br>Beds: 0.0<br> Baths: 1.0,18,1,0,1,4.808697988977123
151,155,https://chicago.craigslist.org/chc/apa/d/chicago-duplex-in-lincoln-park-3/6850897781.html,Duplex in Lincoln Park 3 bedroom 2 bath,Apr  4,41.923532,-87.661054,,3.0,2.0,,,2600.0,price: $2600.0<br>Beds: 3.0<br> Baths: 2.0,16,4,0,4,3.2740276785899236
152,156,https://chicago.craigslist.org/chc/apa/d/chicago-section-8-welcome-2-bedroom-2/6850890763.html,Section 8 Welcome: 2 bedroom 2 bath unit in Lincoln Park,Apr  4,41.922932,-87.641553,,2.0,2.0,,,2300.0,price: $2300.0<br>Beds: 2.0<br> Baths: 2.0,24,6,0,2,3.0546871662207242
153,157,https://chicago.craigslist.org/chc/apa/d/chicago-beautiful-modern-east-lakeview/6849739471.html,***BEAUTIFUL MODERN EAST LAKEVIEW CONVERTIBLE / JR 1-BED!***,Apr  4,41.951532,-87.649755,,0.0,1.0,570.0,"['available apr 4', 'cats are OK - purrr', 'dogs are OK - wooof', 'apartment', 'w/d in unit', 'no smoking', 'attached garage']",1925.0,price: $1925.0<br>Beds: 0.0<br> Baths: 1.0,8,7,0,2,5.052111681844463
154,158,https://chicago.craigslist.org/chc/apa/d/chicago-great-studios-milwaukee/6853303704.html,"Great studios @ Milwaukee/Diversey. Steps to L, Cats OK, Elevator",Apr  4,41.931679,-87.711294,,0.0,1.0,,,995.0,price: $995.0<br>Beds: 0.0<br> Baths: 1.0,27,2,0,2,5.1662072531246634
155,159,https://chicago.craigslist.org/chc/apa/d/chicago-stunning-lakeview-studio-june-1/6858264792.html,Stunning Lakeview Studio June 1,Apr  4,41.938232,-87.649354,,0.0,1.0,,,1235.0,price: $1235.0<br>Beds: 0.0<br> Baths: 1.0,50,5,0,3,4.136645197113894
156,160,https://chicago.craigslist.org/chc/apa/d/chicago-place-to-call-home-3-bedroom-2/6850904858.html,A place to call home: 3 bedroom 2 bath in West Ridge,Apr  4,41.997731,-87.691318,,3.0,2.0,,,2000.0,price: $2000.0<br>Beds: 3.0<br> Baths: 2.0,18,0,0,0,8.626128565122944
157,161,https://chicago.craigslist.org/chc/apa/d/chicago-spacious-3-bedroom-3-bathroom/6858264856.html,"SPACIOUS 3 BEDROOM 3 BATHROOM ** UPDATED KITCHEN, STAINLESS STEEL APPL",Apr  4,41.932232,-87.678255,,3.0,3.0,1800.0,"['available apr 4', 'cats are OK - purrr', 'apartment', 'off-street parking']",2775.0,price: $2775.0<br>Beds: 3.0<br> Baths: 3.0,0,2,0,0,4.179158770113971
158,162,https://chicago.craigslist.org/chc/apa/d/chicago-spacious-2-bed-steps-to/6847089261.html,"Spacious 2 Bed steps to Monument and L, Pets OK",Apr  4,41.927678,-87.707713,,2.0,1.0,,,1795.0,price: $1795.0<br>Beds: 2.0<br> Baths: 1.0,38,1,0,2,4.841173736032862
159,163,https://chicago.craigslist.org/chc/apa/d/chicago-beautiful-unit-in-river-north/6848899531.html,Beautiful Unit in River North,Apr  4,41.8923,-87.6373,,1.0,1.0,,,2100.0,price: $2100.0<br>Beds: 1.0<br> Baths: 1.0,50,1,0,10,0.951593160221594
160,164,https://chicago.craigslist.org/chc/apa/d/chicago-beautiful-uptown-unit-1-bedroom/6848882144.html,Beautiful Uptown Unit: 1 bedroom with parking included,Apr  4,41.973631,-87.664856,,1.0,1.0,,,1449.0,price: $1449.0<br>Beds: 1.0<br> Baths: 1.0,17,1,0,6,6.674813346055004
161,165,https://chicago.craigslist.org/chc/apa/d/chicago-top-floor-sunny-studio-in-great/6853338441.html,"Top floor sunny studio in great building, e-z walk to L",Apr  4,41.92846,-87.712376,,0.0,1.0,,,1040.0,price: $1040.0<br>Beds: 0.0<br> Baths: 1.0,32,0,0,1,5.051985207816029
162,166,https://chicago.craigslist.org/chc/apa/d/chicago-luxurious-1-bedroom-apartment/6858211031.html,"Luxurious, 1-Bedroom Apartment in Pet-Friendly Building",Apr  4,41.900532,-87.632953,,1.0,1.0,,,1734.0,price: $1734.0<br>Beds: 1.0<br> Baths: 1.0,46,5,0,4,1.5539777534509809
163,167,https://chicago.craigslist.org/chc/apa/d/chicago-1-bed-1-bath-old-town-laundry/6858265036.html,1 Bed 1 Bath: Old Town / Laundry in Unit / New Rehab / Pet Friendly,Apr  4,41.9229,-87.6483,,1.0,1.0,823.0,"['available apr 4', 'cats are OK - purrr', 'dogs are OK - wooof', 'apartment', 'w/d in unit', 'attached garage']",2289.0,price: $2289.0<br>Beds: 1.0<br> Baths: 1.0,27,8,0,2,3.0793667964517395
164,168,https://chicago.craigslist.org/chc/apa/d/chicago-superb-1-bedroom-1-bath-in/6848888786.html,Superb 1 bedroom 1 bath in Lincoln Park,Apr  4,41.921632,-87.663354,,1.0,1.0,,,1700.0,price: $1700.0<br>Beds: 1.0<br> Baths: 1.0,15,5,0,3,3.1922487912494866
165,169,https://chicago.craigslist.org/chc/apa/d/chicago-new-remodel-2-bed-in-humboldt/6850173232.html,New remodel 2 bed in Humboldt Park,Apr  4,41.909412,-87.707214,,2.0,1.0,,,1450.0,price: $1450.0<br>Beds: 2.0<br> Baths: 1.0,6,3,0,0,4.040303790766446
166,170,https://chicago.craigslist.org/chc/apa/d/chicago-awesome-1-bedroom-in-lincoln/6848878735.html,Awesome 1 bedroom in Lincoln Park available May 1st,Apr  4,41.928632,-87.642454,,1.0,0.0,,,1425.0,price: $1425.0<br>Beds: 1.0<br> Baths: 0.0,33,7,0,3,3.449342679198618
167,171,https://chicago.craigslist.org/chc/apa/d/chicago-unbelievable-gut-rehab-home/6853449999.html,UNBELIEVABLE GUT REHAB HOME - HEART OF ANDERSONVILLE,Apr  4,41.985231,-87.673256,,1.0,1.0,,,1550.0,price: $1550.0<br>Beds: 1.0<br> Baths: 1.0,6,5,0,0,7.5477355168668065
168,172,https://chicago.craigslist.org/chc/apa/d/chicago-absolutely-huge-vintage-one-bed/6847051822.html,"Absolutely huge vintage one bed, pets ok, no deposit, owners ad",Apr  4,41.925359,-87.709455,,1.0,1.0,,,1550.0,price: $1550.0<br>Beds: 1.0<br> Baths: 1.0,25,1,0,1,4.796705051983773
169,175,https://chicago.craigslist.org/chc/apa/d/chicago-amazing-north-center-3bedroom-2/6847252698.html,AMAZING North Center 3bedroom 2 bath Unit,Apr  4,41.954332,-87.676456,,3.0,2.0,,,2399.0,price: $2399.0<br>Beds: 3.0<br> Baths: 2.0,6,2,0,3,5.542591856409621
170,176,https://chicago.craigslist.org/chc/apa/d/chicago-great-city-view-of-michigan-ave/6841398289.html,Great City View of Michigan Ave from this Furnished 3 Bed | June 1st,Apr  4,41.884529,-87.624485,,3.0,2.0,,,3595.0,price: $3595.0<br>Beds: 3.0<br> Baths: 2.0,50,1,0,19,0.9071508079008936
171,177,https://chicago.craigslist.org/chc/apa/d/chicago-electronic-entry-system-plush/6853464422.html,"Electronic entry system, Plush carpeting, Dishwashers",Apr  4,41.773523,-87.568287,,0.0,1.0,400.0,['apartment'],852.0,price: $852.0<br>Beds: 0.0<br> Baths: 1.0,0,0,0,2,8.152547691813112
172,178,https://chicago.craigslist.org/chc/apa/d/chicago-4-bed-central-air-big-living-rm/6841558599.html,"4 bed, central air, big living rm, dishwasher, pets ok, owner ad",Apr  4,41.909004,-87.707214,,4.0,1.0,1500.0,"['available apr 1', 'cats are OK - purrr', 'dogs are OK - wooof', 'apartment', 'laundry in bldg', 'off-street parking']",1895.0,price: $1895.0<br>Beds: 4.0<br> Baths: 1.0,6,3,0,0,4.025599586729591
173,179,https://chicago.craigslist.org/chc/apa/d/chicago-beautiful-1-bedroom-1-bath-unit/6841071383.html,Beautiful 1 bedroom 1 bath unit in West Rogers Park,Apr  4,42.016732,-87.690572,,1.0,1.0,,,1000.0,price: $1000.0<br>Beds: 1.0<br> Baths: 1.0,4,3,0,0,9.873913103209182
174,180,https://chicago.craigslist.org/chc/apa/d/chicago-rarely-available-studio-july-1/6845370899.html,Rarely Available Studio | July 1 | Lots of Sun,Apr  4,41.884529,-87.624485,,0.0,1.0,,,1675.0,price: $1675.0<br>Beds: 0.0<br> Baths: 1.0,50,1,0,19,0.9071508079008936
175,181,https://chicago.craigslist.org/chc/apa/d/chicago-3-bed-with-great-kitchen-close/6834361516.html,"3 bed with great kitchen, close to #72 bus and park",Apr  4,41.908986,-87.707191,,3.0,1.0,,,1595.0,price: $1595.0<br>Beds: 3.0<br> Baths: 1.0,6,3,0,0,4.023944169084365
176,182,https://chicago.craigslist.org/chc/apa/d/chicago-stunning-sun-filled-gold-coast/6848894415.html,Stunning Sun Filled Gold Coast,Apr  4,41.909532,-87.631853,,1.0,1.0,,,1800.0,price: $1800.0<br>Beds: 1.0<br> Baths: 1.0,29,5,0,2,2.1726200951130386
177,183,https://chicago.craigslist.org/chc/apa/d/chicago-basic-1-bed-ez-walk-to-cats-ok/6851052936.html,"Basic 1 bed, ez walk to L, cats ok, no deposit",Apr  4,41.928232,-87.709356,,1.0,1.0,,,1250.0,price: $1250.0<br>Beds: 1.0<br> Baths: 1.0,37,1,0,1,4.928401088701374
178,184,https://chicago.craigslist.org/chc/apa/d/chicago-beautiful-2-bedroom-2-bath-unit/6850888666.html,Beautiful 2 bedroom 2 bath unit in Lincoln Park,Apr  4,41.922932,-87.641553,,2.0,2.0,,,2300.0,price: $2300.0<br>Beds: 2.0<br> Baths: 2.0,24,6,0,2,3.0546871662207242
179,185,https://chicago.craigslist.org/chc/apa/d/chicago-amazing-views-heat-and-water/6858265597.html,AMAZING VIEWS! HEAT AND WATER INCLUDED!!,Apr  4,41.987631,-87.655556,,1.0,1.0,,,1275.0,price: $1275.0<br>Beds: 1.0<br> Baths: 1.0,5,1,0,3,7.561876954182116
180,186,https://chicago.craigslist.org/chc/apa/d/chicago-gorgeous-lakeview-unit-2/6837884746.html,Gorgeous Lakeview Unit: 2 bedroom 1 bath,Apr  4,41.938232,-87.654254,,2.0,1.0,,,2000.0,price: $2000.0<br>Beds: 2.0<br> Baths: 1.0,35,4,0,4,4.172469824676237
181,187,https://chicago.craigslist.org/chc/apa/d/chicago-spacious-new-3-bd-with-d-in/6845496538.html,"Spacious new 3 bd, with W/D in unit, all new! Dining room, too!",Apr  4,41.934231,-87.716056,,3.0,1.0,1500.0,"['available mar 20', 'cats are OK - purrr', 'dogs are OK - wooof', 'apartment', 'w/d in unit', 'street parking']",2295.0,price: $2295.0<br>Beds: 3.0<br> Baths: 1.0,12,1,0,2,5.463931951478055
182,188,https://chicago.craigslist.org/chc/apa/d/chicago-2-bedroom-condo-parking-lincoln/6845065380.html,2 Bedroom Condo w/Parking Lincoln Park,Apr  4,41.928732,-87.670855,,2.0,1.0,,,2100.0,price: $2100.0<br>Beds: 2.0<br> Baths: 1.0,4,3,0,0,3.794573347434448
183,189,https://chicago.craigslist.org/chc/apa/d/chicago-beautiful-2-bedroom-in-lincoln/6848863524.html,Beautiful 2 Bedroom in Lincoln Park,Apr  4,41.926058,-87.66758,,2.0,1.0,,,2400.0,price: $2400.0<br>Beds: 2.0<br> Baths: 1.0,15,4,0,0,3.557695534106147
184,190,https://chicago.craigslist.org/chc/apa/d/chicago-perfect-junior-1-bed-in-amazing/6839296435.html,"***PERFECT JUNIOR 1-BED IN AMAZING LOCATION! RED LINE, SHOPPING!***",Apr  4,41.907932,-87.648453,,1.0,1.0,715.0,"['available apr 4', 'cats are OK - purrr', 'dogs are OK - wooof', 'apartment', 'w/d in unit', 'no smoking', 'attached garage']",2286.0,price: $2286.0<br>Beds: 1.0<br> Baths: 1.0,15,2,0,2,2.061370226772716
185,191,https://chicago.craigslist.org/chc/apa/d/chicago-stunning-duplex-4-bedrom-2-bath/6847262436.html,Stunning Duplex: 4 bedrom 2 bath in Roscoe Village,Apr  4,41.943332,-87.678555,,4.0,2.0,,,2900.0,price: $2900.0<br>Beds: 4.0<br> Baths: 2.0,10,4,0,2,4.876256869368113
186,192,https://chicago.craigslist.org/chc/apa/d/chicago-beautiful-3-bedroom-2-bath-unit/6837892775.html,Beautiful 3 bedroom 2 bath unit in Logan Square,Apr  4,41.926331,-87.723057,,3.0,2.0,,,1495.0,price: $1495.0<br>Beds: 3.0<br> Baths: 2.0,6,4,0,1,5.376048276173618
187,193,https://chicago.craigslist.org/chc/apa/d/chicago-3-bedroom-2-bath-condo-parking/6847207381.html,3 bedroom 2 bath Condo w Parking,Apr  4,41.895932,-87.700755,,3.0,2.0,,,1900.0,price: $1900.0<br>Beds: 3.0<br> Baths: 2.0,4,1,0,1,3.327455487663113
188,194,https://chicago.craigslist.org/chc/apa/d/chicago-3-bed-in-converted-church-on/6863762705.html,"3 Bed in Converted Church on W Logan Blvd., 2 Bath, Must See!!",Apr 11,41.928032,-87.699956,,3.0,2.0,,,3900.0,price: $3900.0<br>Beds: 3.0<br> Baths: 2.0,38,2,0,2,4.5825608650047425
189,195,https://chicago.craigslist.org/chc/apa/d/chicago-spacious-3bd-apt-in-humboldt/6854505706.html,Spacious 3BD apt in Humboldt Park w/ Central A/C. Walk to the 606 trail!,Apr 11,41.909285,-87.70712,,3.0,1.0,,,1595.0,price: $1595.0<br>Beds: 3.0<br> Baths: 1.0,6,3,0,0,4.031595182433022
190,196,https://chicago.craigslist.org/chc/apa/d/chicago-fantastic-layout-on-this-new/6863749119.html,***FANTASTIC LAYOUT ON THIS NEW STUDIO - CLICK TO LOVE***,Apr 11,41.992631,-87.658656,,0.0,1.0,,,1125.0,price: $1125.0<br>Beds: 0.0<br> Baths: 1.0,13,2,0,3,7.922689187687864
191,197,https://chicago.craigslist.org/chc/apa/d/chicago-lakeview-1-bed-1-bath-hdwd/6850315434.html,LAKEVIEW: 1 BED 1 BATH HDWD LAUNDRY IN BUILDING CLOSE TO RESTAURANTS,Apr 11,41.952889,-87.664369,,1.0,1.0,,,1300.0,price: $1300.0<br>Beds: 1.0<br> Baths: 1.0,8,3,0,5,5.26955316274922
192,198,https://chicago.craigslist.org/chc/apa/d/chicago-south-loop-3-bed-2-bath-hi-rise/6846164626.html,SOUTH LOOP: 3 BED 2 BATH HI RISE PET FRIENDLY FULL OF AMENITIES,Apr 11,41.862451,-87.624011,,3.0,2.0,,,3690.0,price: $3690.0<br>Beds: 3.0<br> Baths: 2.0,5,2,0,4,1.4000339524294818
193,199,https://chicago.craigslist.org/chc/apa/d/wrigleyville-4bd-2bth-hardwood/6863731411.html,WRIGLEYVILLE 4bd/2bth-HARDWOOD FLOORS+CENTRAL AC-722 W Bittersweet 3W,Apr 11,41.953947,-87.644733,,4.0,2.0,,,2500.0,price: $2500.0<br>Beds: 4.0<br> Baths: 2.0,2,5,0,2,5.200435924327253
194,200,https://chicago.craigslist.org/chc/apa/d/chicago-charming-lincoln-park-4-bedroom/6846221498.html,Charming Lincoln Park 4 Bedroom - 1936 N. Sheffield Ave. #1936-1R,Apr 11,41.918132,-87.653554,,4.0,2.0,,,3295.0,price: $3295.0<br>Beds: 4.0<br> Baths: 2.0,37,4,0,3,2.8065060107783384
195,201,https://chicago.craigslist.org/chc/apa/d/chicago-518-fullerton-pkwy-518-2/6856405612.html,518 W. Fullerton Pkwy #518-2,Apr 11,41.925632,-87.641654,,5.0,4.0,,,4695.0,price: $4695.0<br>Beds: 5.0<br> Baths: 4.0,25,6,0,3,3.2411774772245514
196,202,https://chicago.craigslist.org/chc/apa/d/chicago-2-bed-with-open-kitchen-in/6863706901.html,2 Bed with open kitchen in Lakeview Available,Apr 11,41.933658,-87.6417,,2.0,1.0,,,1845.0,price: $1845.0<br>Beds: 2.0<br> Baths: 1.0,33,4,0,4,3.7952693782982605
197,203,https://chicago.craigslist.org/chc/apa/d/chicago-must-see-1br-available-in-heart/6844841486.html,Must See 1BR Available in Heart of Uptown!,Apr 11,41.974531,-87.669856,,1.0,1.0,,,1375.0,price: $1375.0<br>Beds: 1.0<br> Baths: 1.0,13,0,0,7,6.788633530896772
198,204,https://chicago.craigslist.org/chc/apa/d/montgomery-910-month-water-2-bed-unit/6863701493.html,$910/MONTH + WATER / 2 BED UNIT/HEAT INCLUDED,Apr 11,41.713241,-88.347008,,2.0,1.0,800.0,"['available apr 11', 'cats are OK - purrr', 'dogs are OK - wooof', 'apartment', 'laundry on site', 'street parking']",970.0,price: $970.0<br>Beds: 2.0<br> Baths: 1.0,0,0,0,0,38.12917621489848
199,205,https://chicago.craigslist.org/chc/apa/d/br-3br-great-location/6842123649.html,$1525/ 3br - 3BR Great Location.,Apr 11,41.9232,-87.8185,,3.0,1.5,1400.0,"['available mar 16', 'apartment', 'laundry in bldg', 'no smoking']",1525.0,price: $1525.0<br>Beds: 3.0<br> Baths: 1.5,0,1,0,1,9.659451669000147
200,206,https://chicago.craigslist.org/chc/apa/d/chicago-live-it-up-in-this-top-floor/6846169774.html,Live it up in this Top Floor Renovated 1 Bedroom with Sunset View,Apr 11,41.964681,-87.650354,,1.0,1.0,,,1395.0,price: $1395.0<br>Beds: 1.0<br> Baths: 1.0,1,1,0,4,5.959004625656815
201,207,https://chicago.craigslist.org/chc/apa/d/chicago-tons-of-closet-space-brand-new/6863683868.html,Tons of Closet Space - BRAND NEW BUILDING,Apr 11,42.00364,-87.665943,,1.0,1.0,,,1225.0,price: $1225.0<br>Beds: 1.0<br> Baths: 1.0,15,5,0,3,8.726459716332034
202,208,https://chicago.craigslist.org/chc/apa/d/chicago-brand-new-building-1-bedroom-in/6852979391.html,BRAND NEW BUILDING* 1 BEDROOM IN RIVER NORTH,Apr 11,41.8923,-87.6373,,1.0,1.0,,,2349.0,price: $2349.0<br>Beds: 1.0<br> Baths: 1.0,50,1,0,10,0.951593160221594
203,209,https://chicago.craigslist.org/chc/apa/d/chicago-ultra-clean-remodeled-1-bedroom/6863681592.html,Ultra Clean REMODELED 1 bedroom (HEAT INCLUDED)(LAKE VIEW/CABLE),Apr 11,41.994457,-87.655277,,1.0,1.0,900.0,"['apartment', 'laundry in bldg', 'no smoking', 'attached garage', 'wheelchair accessible']",1595.0,price: $1595.0<br>Beds: 1.0<br> Baths: 1.0,9,1,0,3,8.029401162852722
204,210,https://chicago.craigslist.org/chc/apa/d/chicago-beautiful-lakeview-2-bedroom-2/6863676419.html, BEAUTIFUL Lakeview 2 bedroom / 2 bath - W/D IN UNIT - deck,Apr 11,41.945432,-87.659255,,2.0,2.0,,,2300.0,price: $2300.0<br>Beds: 2.0<br> Baths: 2.0,26,1,0,4,4.709335960918646
205,211,https://chicago.craigslist.org/chc/apa/d/chicago-large-new-studio-in-river-north/6863676449.html,Large new studio in River North with w/d in unit June 1! Pets welcome,Apr 11,41.890806,-87.634596,,0.0,1.0,,,1850.0,price: $1850.0<br>Beds: 0.0<br> Baths: 1.0,50,0,0,13,0.8857955174363669
206,212,https://chicago.craigslist.org/chc/apa/d/chicago-beautiful-2-bed-apartment-hwd/6861929210.html,"BEAUTIFUL 2 BED APARTMENT (HWD FLOORS, W/D IN UNIT, PARKING) MAY/JUNE",Apr 11,41.929305,-87.668368,,2.0,1.0,1600.0,"['available may 1', 'cats are OK - purrr', 'dogs are OK - wooof', 'apartment', 'w/d in unit', 'detached garage']",1750.0,price: $1750.0<br>Beds: 2.0<br> Baths: 1.0,10,3,0,0,3.7800347989619083
207,213,https://chicago.craigslist.org/chc/apa/d/chicago-air-conditioning-formal-dining/6863676551.html,"Air Conditioning, Formal dining room, Dishwasher",Apr 11,41.977366,-87.655255,,1.0,1.0,575.0,"['cats are OK - purrr', 'dogs are OK - wooof', 'apartment', 'laundry in bldg', 'off-street parking']",1166.0,price: $1166.0<br>Beds: 1.0<br> Baths: 1.0,12,1,0,4,6.8555941868678305
208,214,https://chicago.craigslist.org/chc/apa/d/chicago-gut-rehabbed-uptown-2-bed-wd-in/6863676724.html,"GUT REHABBED UPTOWN 2 BED ~ WD IN UNIT, C/AIR, HWF+DW, GRANITE+SS",Apr 11,41.969131,-87.667756,,2.0,1.0,,,1700.0,price: $1700.0<br>Beds: 2.0<br> Baths: 1.0,10,1,0,8,6.401157204120673
209,215,https://chicago.craigslist.org/chc/apa/d/chicago-4bed-3ba-duplex-available-june/6863676791.html,4BED/3BA DUPLEX  AVAILABLE JUNE 1ST~PARKING INCLD,Apr 11,41.932232,-87.678255,,4.0,0.0,,,2950.0,price: $2950.0<br>Beds: 4.0<br> Baths: 0.0,0,2,0,0,4.179158770113971
210,216,https://chicago.craigslist.org/chc/apa/d/chicago-elegant-south-loop-1bd-balcony/6863676884.html,"Elegant South Loop 1bd- Balcony, WD in Unit, Hardwood floors",Apr 11,41.855333,-87.625451,,1.0,1.5,,,2187.0,price: $2187.0<br>Beds: 1.0<br> Baths: 1.5,4,1,0,4,1.7849169669930594
211,217,https://chicago.craigslist.org/chc/apa/d/chicago-boutique-new-construction-in/6863677026.html,Boutique New Construction in River North - Lease Up Now w/ Free Month,Apr 11,41.8923,-87.6373,,1.0,1.0,,,2215.0,price: $2215.0<br>Beds: 1.0<br> Baths: 1.0,50,1,0,10,0.951593160221594
212,218,https://chicago.craigslist.org/chc/apa/d/chicago-river-north-1brnew-buildingw/6848441457.html,River North 1BR~New Building~W/D~Hardwood~Quartz~Rooftop Pool/Gym,Apr 11,41.892518,-87.633927,,1.0,1.0,,,2725.0,price: $2725.0<br>Beds: 1.0<br> Baths: 1.0,50,0,0,10,1.0087411310363257
213,219,https://chicago.craigslist.org/chc/apa/d/chicago-new-remodelbright-south-loop/6851469627.html,New Remodel~Bright South Loop/Printers Row 2 BR/1 Bath~Pool~Gym,Apr 11,41.871926,-87.627254,,2.0,1.0,,,2406.0,price: $2406.0<br>Beds: 2.0<br> Baths: 1.0,30,2,0,16,0.8176822803829321
214,220,https://chicago.craigslist.org/chc/apa/d/chicago-wrigleyville-halsted-waveland-2/6863677293.html,*Wrigleyville - (Halsted/Waveland) - 2 bed/1 bath - Available NOW!*,Apr 11,41.949332,-87.649854,,2.0,1.0,,,2000.0,price: $2000.0<br>Beds: 2.0<br> Baths: 1.0,19,5,0,2,4.901445448501934
215,221,https://chicago.craigslist.org/chc/apa/d/chicago-lakeview-2-bedroom-with/6863677379.html,"Lakeview 2 Bedroom with Stainless Steel & Granite, Only Pay Elec",Apr 11,41.955932,-87.645855,,2.0,1.0,,,1745.0,price: $1745.0<br>Beds: 2.0<br> Baths: 1.0,2,6,0,3,5.340132818330265
216,222,https://chicago.craigslist.org/chc/apa/d/chicago-lakeview-studio-near-redline/6858825572.html,Lakeview Studio Near Redline $995  MAY1,Apr 11,41.951532,-87.649755,,0.0,1.0,,,995.0,price: $995.0<br>Beds: 0.0<br> Baths: 1.0,8,7,0,2,5.052111681844463
217,223,https://chicago.craigslist.org/chc/apa/d/chicago-gorgeous-rehabbed-1-bed-in/6863677630.html,Gorgeous rehabbed 1 bed in Logan Square!!  Quartz and SS!  Dogs ok!,Apr 11,41.924932,-87.692655,,1.0,1.0,,,1595.0,price: $1595.0<br>Beds: 1.0<br> Baths: 1.0,32,3,0,2,4.1747244863576585
218,224,https://chicago.craigslist.org/chc/apa/d/chicago-3-bed-recent-rehab-in-unit-d/6863677707.html,"3 Bed Recent Rehab W/ In-Unit W/D, Granite & Stainless Near Blue Line,",Apr 11,41.955331,-87.726357,,3.0,1.0,,,1800.0,price: $1800.0<br>Beds: 3.0<br> Baths: 1.0,0,1,0,3,6.895172991095224
219,225,https://chicago.craigslist.org/chc/apa/d/chicago-grand-crossing-1bd-heat-dining/6863677738.html,"GRAND CROSSING 1BD w/ HEAT, DINING ROOM & WOOD FLOORS $740",Apr 11,41.762922,-87.588647,,1.0,1.0,650.0,"['available apr 11', 'cats are OK - purrr', 'dogs are OK - wooof', 'apartment']",740.0,price: $740.0<br>Beds: 1.0<br> Baths: 1.0,1,4,0,3,8.42416772251867
220,226,https://chicago.craigslist.org/chc/apa/d/chicago-wicker-park-2-bed-2-bath-condo/6863677899.html,Wicker Park 2 bed/2 Bath Condo,Apr 11,41.901632,-87.663854,,2.0,2.0,1300.0,"['available jun 1', 'condo', 'w/d in unit', 'no smoking', 'carport']",2600.0,price: $2600.0<br>Beds: 2.0<br> Baths: 2.0,16,5,0,2,1.9931543131110587
221,227,https://chicago.craigslist.org/chc/apa/d/chicago-must-see-lakeview-studio/6854094250.html,Must See Lakeview Studio Available June1/ Close to Public Trans,Apr 11,41.940032,-87.650754,,0.0,1.0,,,975.0,price: $975.0<br>Beds: 0.0<br> Baths: 1.0,46,5,0,4,4.268615115533906
222,229,https://chicago.craigslist.org/chc/apa/d/chicago-renovated-top-floor-2-br/6863678464.html,Renovated Top Floor 2 BR,Apr 11,42.00364,-87.665943,,2.0,1.0,,,1545.0,price: $1545.0<br>Beds: 2.0<br> Baths: 1.0,15,5,0,3,8.726459716332034
223,230,https://chicago.craigslist.org/chc/apa/d/chicago-gorgeous-rehabbed-1-bed-in/6863678619.html,Gorgeous rehabbed 1 bed in Logan Square!!  Quartz and SS!  Dogs ok!,Apr 11,41.924832,-87.692955,,1.0,1.0,,,1595.0,price: $1595.0<br>Beds: 1.0<br> Baths: 1.0,32,3,0,2,4.179413849709257
224,231,https://chicago.craigslist.org/chc/apa/d/chicago-prime-buena-park-1br-heated-hw/6863679180.html,Prime Buena Park 1BR Heated HW Floors Dishwshr+Micro Central AC PetsOK,Apr 11,41.958732,-87.651455,,1.0,1.0,,,1390.0,price: $1390.0<br>Beds: 1.0<br> Baths: 1.0,4,6,0,3,5.555466943056988
225,232,https://chicago.craigslist.org/chc/apa/d/chicago-west-loop-living/6863656254.html,West Loop Living,Apr 11,41.8814,-87.643,,0.0,1.0,,,1400.0,price: $1400.0<br>Beds: 0.0<br> Baths: 1.0,50,3,2,13,0.23241879200135795
226,233,https://chicago.craigslist.org/chc/apa/d/chicago-updated-lakeview-2-bed-1-ba/6863679255.html,"UPDATED LAKEVIEW 2 BED 1 BA ~ HWF+DW, C/AIR, STEPS TO EL, WD IN BLDG",Apr 11,41.939632,-87.676055,,2.0,1.0,,,1900.0,price: $1900.0<br>Beds: 2.0<br> Baths: 1.0,10,3,0,2,4.590728363573219
227,234,https://chicago.craigslist.org/chc/apa/d/chicago-big-3-bed-2-bath-duplex-in/6839798311.html,Big 3 bed 2 bath DUPLEX in Wicker Park!,Apr 11,41.9008,-87.6528,,3.0,2.0,,,2700.0,price: $2700.0<br>Beds: 3.0<br> Baths: 2.0,3,2,0,1,1.6556466753462413
228,235,https://chicago.craigslist.org/chc/apa/d/chicago-all-brand-new-huge-duplex-down/6839798405.html,"ALL BRAND NEW, HUGE DUPLEX DOWN condo-quality 2 Bed/2 bath IN UNIT W/D",Apr 11,41.9543,-87.6575,,2.0,2.0,,,2600.0,price: $2600.0<br>Beds: 2.0<br> Baths: 2.0,3,2,0,2,5.294094356896243
229,236,https://chicago.craigslist.org/chc/apa/d/chicago-dazzling-south-loop-convertible/6863679340.html,"Dazzling South Loop Convertible w/ W/D in Unit, Hardwood Floors",Apr 11,41.877031,-87.624284,,1.0,1.0,,,1750.0,price: $1750.0<br>Beds: 1.0<br> Baths: 1.0,36,4,0,20,0.8313910422786734
230,237,https://chicago.craigslist.org/chc/apa/d/chicago-3-bd-2-bath-pet-ok-internet/6839810354.html,"3 Bd, 2 Bath, Pet Ok, Internet Included, Hardwood Floors, Garage",Apr 11,41.9464,-87.7042,,3.0,2.0,1500.0,"['cats are OK - purrr', 'dogs are OK - wooof', 'apartment', 'laundry in bldg', 'attached garage']",3075.0,price: $3075.0<br>Beds: 3.0<br> Baths: 2.0,5,0,0,1,5.712213278987734
231,238,https://chicago.craigslist.org/chc/apa/d/chicago-all-brand-new-huge-duplex-down/6841480025.html,"ALL BRAND NEW, HUGE DUPLEX DOWN condo-quality 2 Bed/2 bath IN UNIT W/D",Apr 11,41.9543,-87.6575,,2.0,2.0,,,2600.0,price: $2600.0<br>Beds: 2.0<br> Baths: 2.0,3,2,0,2,5.294094356896243
232,239,https://chicago.craigslist.org/chc/apa/d/chicago-big-3-bed-2-bath-duplex-in/6839812066.html,Big 3 bed 2 bath DUPLEX in Wicker Park!,Apr 11,41.9008,-87.6528,,3.0,2.0,,,2700.0,price: $2700.0<br>Beds: 3.0<br> Baths: 2.0,3,2,0,1,1.6556466753462413
233,240,https://chicago.craigslist.org/chc/apa/d/chicago-2-bed-2-bath-renovated-gem-in/6841300820.html,2 Bed 2 Bath Renovated Gem In The Heart Lakeview!!,Apr 11,41.9399,-87.6528,,2.0,2.0,,,3000.0,price: $3000.0<br>Beds: 2.0<br> Baths: 2.0,42,4,0,5,4.274104232965883
234,241,https://chicago.craigslist.org/chc/apa/d/chicago-2-bed-2-bath-renovated-gem-in/6841272717.html,2 Bed 2 Bath Renovated Gem In The Heart Lakeview!!,Apr 11,41.9399,-87.6528,,2.0,2.0,,,3000.0,price: $3000.0<br>Beds: 2.0<br> Baths: 2.0,42,4,0,5,4.274104232965883
235,242,https://chicago.craigslist.org/chc/apa/d/chicago-2-bed-2-bath-renovated-gem-in/6841270903.html,2 Bed 2 Bath Renovated Gem In The Heart Lakeview!!,Apr 11,41.9399,-87.6528,,2.0,2.0,,,3000.0,price: $3000.0<br>Beds: 2.0<br> Baths: 2.0,42,4,0,5,4.274104232965883
236,243,https://chicago.craigslist.org/chc/apa/d/chicago-2-bed-2-bath-renovated-gem-in/6841269745.html,2 Bed 2 Bath Renovated Gem In The Heart Lakeview!!,Apr 11,41.9399,-87.6528,,2.0,2.0,,,3000.0,price: $3000.0<br>Beds: 2.0<br> Baths: 2.0,42,4,0,5,4.274104232965883
237,244,https://chicago.craigslist.org/chc/apa/d/chicago-2-bed-2-bath-renovated-gem-in/6841268016.html,2 Bed 2 Bath Renovated Gem In The Heart Lakeview!!,Apr 11,41.9399,-87.6528,,2.0,2.0,,,3000.0,price: $3000.0<br>Beds: 2.0<br> Baths: 2.0,42,4,0,5,4.274104232965883
238,245,https://chicago.craigslist.org/chc/apa/d/chicago-brand-new-massive-loft-style/6841255426.html,"BRAND NEW, MASSIVE Loft-style condo-quality 3 Bed/2 ba IN UNIT LAUNDRY",Apr 11,41.9543,-87.6575,,3.0,2.0,,,3300.0,price: $3300.0<br>Beds: 3.0<br> Baths: 2.0,3,2,0,2,5.294094356896243
239,246,https://chicago.craigslist.org/chc/apa/d/chicago-big-3-bed-2-bath-duplex-in/6841250106.html,Big 3 bed 2 bath DUPLEX in Wicker Park!,Apr 11,41.9008,-87.6528,,3.0,2.0,,,2700.0,price: $2700.0<br>Beds: 3.0<br> Baths: 2.0,3,2,0,1,1.6556466753462413
240,247,https://chicago.craigslist.org/chc/apa/d/chicago-luxurious-humboldt-park-3br-2ba/6841245845.html,Luxurious Humboldt Park 3BR/2BA with Parking Included!! Pet Friendly!!,Apr 11,41.9209,-87.7043,,3.0,2.0,,,2550.0,price: $2550.0<br>Beds: 3.0<br> Baths: 2.0,25,3,0,2,4.394030992894101
241,248,https://chicago.craigslist.org/chc/apa/d/chicago-brand-new-massive-loft-style/6841252722.html,"BRAND NEW, MASSIVE Loft-style condo-quality 3 Bed/2 ba IN UNIT LAUNDRY",Apr 11,41.9543,-87.6575,,3.0,2.0,,,3300.0,price: $3300.0<br>Beds: 3.0<br> Baths: 2.0,3,2,0,2,5.294094356896243
242,249,https://chicago.craigslist.org/chc/apa/d/chicago-1-bd-laundry-in-unit-dishwasher/6841248014.html,"1 Bd, Laundry in Unit, Dishwasher, Pets Negotiable, Central Heat",Apr 11,41.8829,-87.6321,,1.0,1.0,,,2000.0,price: $2000.0<br>Beds: 1.0<br> Baths: 1.0,50,1,2,24,0.511649521576355
243,250,https://chicago.craigslist.org/chc/apa/d/chicago-2-bd/6841235090.html,2 Bd,Apr 11,41.9229,-87.6483,,2.0,1.0,,,2000.0,price: $2000.0<br>Beds: 2.0<br> Baths: 1.0,27,8,0,2,3.0793667964517395
244,251,https://chicago.craigslist.org/chc/apa/d/chicago-1-bd-radiator-heat-window-ac/6841233749.html,"1 Bd, Radiator Heat, Window AC, Standard Bathroom, Parking For Rent",Apr 11,41.9229,-87.6483,,1.0,1.0,,,1450.0,price: $1450.0<br>Beds: 1.0<br> Baths: 1.0,27,8,0,2,3.0793667964517395
245,252,https://chicago.craigslist.org/chc/apa/d/chicago-large-renovated-1-br-in-luxury/6860287642.html,"Large, RENOVATED 1 BR in Luxury High-Rise with Lakeview",Apr 11,41.931532,-87.639554,,1.0,1.0,800.0,"['available may 1', 'apartment', 'laundry in bldg', 'no smoking', 'attached garage']",1900.0,price: $1900.0<br>Beds: 1.0<br> Baths: 1.0,26,3,0,0,3.6479987626367865
246,253,https://chicago.craigslist.org/chc/apa/d/chicago-gorgeous-rehabbed-1-bed-in/6863679782.html,Gorgeous rehabbed 1 bed in Logan Square!!  Quartz and SS!  Dogs ok!,Apr 11,41.924832,-87.692955,,1.0,1.0,,,1595.0,price: $1595.0<br>Beds: 1.0<br> Baths: 1.0,32,3,0,2,4.179413849709257
247,254,https://chicago.craigslist.org/chc/apa/d/chicago-1-bd-laundry-in-unit-dishwasher/6841236528.html,"1 Bd, Laundry in Unit, Dishwasher, Pets Negotiable, Central Heat",Apr 11,41.8829,-87.6321,,1.0,1.0,,,2000.0,price: $2000.0<br>Beds: 1.0<br> Baths: 1.0,50,1,2,24,0.511649521576355
248,255,https://chicago.craigslist.org/chc/apa/d/chicago-awesome-1-bedroom-1-bath-loft/6841224846.html,Awesome 1 bedroom 1 bath LOFT Prime West Town,Apr 11,41.8721,-87.6578,,1.0,1.0,700.0,"['cats are OK - purrr', 'dogs are OK - wooof', 'apartment', 'off-street parking']",1900.0,price: $1900.0<br>Beds: 1.0<br> Baths: 1.0,9,4,0,3,1.0085168139971645
249,256,https://chicago.craigslist.org/chc/apa/d/chicago-awesome-1-bedroom-1-bath-loft/6841226248.html,Awesome 1 bedroom 1 bath LOFT Prime West Town,Apr 11,41.8721,-87.6578,,1.0,1.0,700.0,"['cats are OK - purrr', 'dogs are OK - wooof', 'apartment', 'off-street parking']",1900.0,price: $1900.0<br>Beds: 1.0<br> Baths: 1.0,9,4,0,3,1.0085168139971645
250,257,https://chicago.craigslist.org/chc/apa/d/chicago-cozy-2-bed-1-bath-in-irving/6863679880.html,"Cozy 2 Bed/ 1 Bath in Irving Park With Faux Fireplace, Dining Room, an",Apr 11,41.9453,-87.7474,,2.0,1.0,,,1485.0,price: $1485.0<br>Beds: 2.0<br> Baths: 1.0,1,2,0,1,7.1713270050075035
251,258,https://chicago.craigslist.org/chc/apa/d/chicago-great-loft-in-prime-bucktown/6845350786.html,"Great Loft in Prime Bucktown, Tons of Amenities!",Apr 11,41.9209,-87.7043,,2.0,2.0,,,2450.0,price: $2450.0<br>Beds: 2.0<br> Baths: 2.0,25,3,0,2,4.394030992894101
252,259,https://chicago.craigslist.org/chc/apa/d/chicago-1-bd-radiator-heat-window-ac/6841231042.html,"1 Bd, Radiator Heat, Window AC, Standard Bathroom, Parking For Rent",Apr 11,41.9229,-87.6483,,1.0,1.0,,,1450.0,price: $1450.0<br>Beds: 1.0<br> Baths: 1.0,27,8,0,2,3.0793667964517395
253,260,https://chicago.craigslist.org/chc/apa/d/chicago-3-bd-2-bath/6841230024.html,"3 Bd, 2 Bath",Apr 11,41.9033,-87.6336,,3.0,2.0,,,3395.0,price: $3395.0<br>Beds: 3.0<br> Baths: 2.0,40,4,0,4,1.7330709873443655
254,261,https://chicago.craigslist.org/chc/apa/d/chicago-streeterville-3-bedroom-fully/6863652317.html,***STREETERVILLE 3 BEDROOM - FULLY RENOVATED - GORGEOUS***,Apr 11,41.893355,-87.609844,,3.0,3.0,,,3993.0,price: $3993.0<br>Beds: 3.0<br> Baths: 3.0,9,0,0,0,1.8640500210964666
255,262,https://chicago.craigslist.org/chc/apa/d/chicago-awesome-1-bedroom-1-bath-loft/6841222555.html,Awesome 1 bedroom 1 bath LOFT Prime West Town,Apr 11,41.8721,-87.6578,,1.0,1.0,700.0,"['cats are OK - purrr', 'dogs are OK - wooof', 'apartment', 'off-street parking']",1900.0,price: $1900.0<br>Beds: 1.0<br> Baths: 1.0,9,4,0,3,1.0085168139971645
256,263,https://chicago.craigslist.org/chc/apa/d/chicago-large-3-bed-gem-in-prime-old/6841221113.html,Large 3 Bed Gem In Prime Old Town Across The Street From Apple Store!!,Apr 11,41.9008,-87.6528,,3.0,2.0,,,3000.0,price: $3000.0<br>Beds: 3.0<br> Baths: 2.0,3,2,0,1,1.6556466753462413
257,264,https://chicago.craigslist.org/chc/apa/d/chicago-amazing-west-rogers-park-2/6841544096.html,"Amazing West Rogers Park 2 Bedroom Rehab, In-Unit Washer/Dryer",Apr 11,42.0086,-87.6947,,2.0,1.0,,,1400.0,price: $1400.0<br>Beds: 2.0<br> Baths: 1.0,3,2,0,0,9.394021055930136
258,265,https://chicago.craigslist.org/chc/apa/d/chicago-amazing-west-rogers-park-2/6841531989.html,"Amazing West Rogers Park 2 Bedroom Rehab, In-Unit Washer/Dryer",Apr 11,42.0086,-87.6947,,2.0,2.0,,,1450.0,price: $1450.0<br>Beds: 2.0<br> Baths: 2.0,3,2,0,0,9.394021055930136
259,266,https://chicago.craigslist.org/chc/apa/d/chicago-amazing-west-rogers-park-2/6841535527.html,"Amazing West Rogers Park 2 Bedroom Rehab, In-Unit Washer/Dryer",Apr 11,42.0086,-87.6947,,2.0,1.0,,,1400.0,price: $1400.0<br>Beds: 2.0<br> Baths: 1.0,3,2,0,0,9.394021055930136
260,267,https://chicago.craigslist.org/chc/apa/d/chicago-beautiful-must-see-2-bedroom/6843259034.html,"Beautiful, MUST SEE 2 Bedroom Unit In Old Town Triangle!!",Apr 11,41.9229,-87.6483,,2.0,2.0,1175.0,"['cats are OK - purrr', 'dogs are OK - wooof', 'apartment']",3599.0,price: $3599.0<br>Beds: 2.0<br> Baths: 2.0,27,8,0,2,3.0793667964517395
261,268,https://chicago.craigslist.org/chc/apa/d/chicago-2-bd-2-bath-bike-room-bike/6841597180.html,"2 Bd, 2 Bath, Bike Room/Bike Trails, Gym, Parking For Rent, Cafe",Apr 11,41.9008,-87.6528,,2.0,2.0,1285.0,"['apartment', 'attached garage']",3828.0,price: $3828.0<br>Beds: 2.0<br> Baths: 2.0,3,2,0,1,1.6556466753462413
262,269,https://chicago.craigslist.org/chc/apa/d/chicago-luxurious-humboldt-park-3br-2ba/6841585299.html,Luxurious Humboldt Park 3BR/2BA with Parking Included!! Pet Friendly!!,Apr 11,41.9209,-87.7043,,3.0,2.0,,,2550.0,price: $2550.0<br>Beds: 3.0<br> Baths: 2.0,25,3,0,2,4.394030992894101
263,270,https://chicago.craigslist.org/chc/apa/d/chicago-2-bed-2-bath-renovated-gem-in/6841691119.html,2 Bed 2 Bath Renovated Gem In The Heart Lakeview!!,Apr 11,41.9399,-87.6528,,2.0,2.0,,,3000.0,price: $3000.0<br>Beds: 2.0<br> Baths: 2.0,42,4,0,5,4.274104232965883
264,271,https://chicago.craigslist.org/chc/apa/d/chicago-1-bd-pet-ok-modern-bathroom/6851056726.html,"1 Bd, Pet Ok, Modern Bathroom, Jacuzzi Tub, New/Renovated Kitchen",Apr 11,41.9229,-87.6483,,1.0,1.0,,,2400.0,price: $2400.0<br>Beds: 1.0<br> Baths: 1.0,27,8,0,2,3.0793667964517395
265,272,https://chicago.craigslist.org/chc/apa/d/chicago-2-bd-2-bath-bike-room-bike/6839724773.html,"2 Bd, 2 Bath, Bike Room/Bike Trails, Gym, Parking For Rent, Cafe",Apr 11,41.9008,-87.6528,,2.0,2.0,1285.0,"['apartment', 'attached garage']",3828.0,price: $3828.0<br>Beds: 2.0<br> Baths: 2.0,3,2,0,1,1.6556466753462413
266,273,https://chicago.craigslist.org/chc/apa/d/chicago-1-bd-parking-available-swimming/6839723703.html,"1 Bd, Parking Available, Swimming Pool, Parking Available, Gym, Gym",Apr 11,41.9008,-87.6528,,1.0,1.0,800.0,"['apartment', 'attached garage']",2873.0,price: $2873.0<br>Beds: 1.0<br> Baths: 1.0,3,2,0,1,1.6556466753462413
267,274,https://chicago.craigslist.org/chc/apa/d/chicago-1-bd-pet-ok-window-ac-shared/6854924819.html,"1 Bd, Pet Ok, Window AC, Shared Deck, Standard Bathroom",Apr 11,41.9399,-87.6528,,1.0,1.0,,,1450.0,price: $1450.0<br>Beds: 1.0<br> Baths: 1.0,42,4,0,5,4.274104232965883
268,275,https://chicago.craigslist.org/chc/apa/d/chicago-25-bd-pet-ok-modern-kitchen/6839721036.html,"2.5 Bd, Pet Ok, Modern Kitchen, Hardwood Floors, Central Air, Carpet",Apr 11,41.9229,-87.6483,,2.0,1.0,1800.0,"['cats are OK - purrr', 'dogs are OK - wooof', 'apartment', 'laundry in bldg', 'off-street parking']",1895.0,price: $1895.0<br>Beds: 2.0<br> Baths: 1.0,27,8,0,2,3.0793667964517395
269,276,https://chicago.craigslist.org/chc/apa/d/chicago-brand-new-rehab-albany-park-2/6863680450.html,Brand New Rehab ALBANY PARK 2 Bed/ 1 Bath Apartment!!!,Apr 11,41.968531,-87.707357,,2.0,1.0,,,1450.0,price: $1450.0<br>Beds: 2.0<br> Baths: 1.0,5,1,0,3,7.0948468893704675
270,277,https://chicago.craigslist.org/chc/apa/d/chicago-huge-4br-2ba-duplex-close-to/6856580450.html,"HUGE 4BR/2BA DUPLEX CLOSE TO WELLINGTON EL STOP, MUST SEE!!!",Apr 11,41.9399,-87.6528,,4.0,2.0,1600.0,"['available jun 1', 'cats are OK - purrr', 'apartment', 'w/d in unit', 'street parking']",3200.0,price: $3200.0<br>Beds: 4.0<br> Baths: 2.0,42,4,0,5,4.274104232965883
271,278,https://chicago.craigslist.org/chc/apa/d/chicago-spacious-1bd-1bth-granite/6863680500.html,SPACIOUS 1BD 1BTH *GRANITE COUNTERS *HWD FLOORS *PARKING!,Apr 11,41.953232,-87.645254,,1.0,1.0,,,1445.0,price: $1445.0<br>Beds: 1.0<br> Baths: 1.0,3,6,0,2,5.15236943418331
272,279,https://chicago.craigslist.org/chc/apa/d/chicago-25-bd-pet-ok-modern-kitchen/6839722905.html,"2.5 Bd, Pet Ok, Modern Kitchen, Hardwood Floors, Central Air, Carpet",Apr 11,41.9229,-87.6483,,2.0,1.0,1800.0,"['cats are OK - purrr', 'dogs are OK - wooof', 'apartment', 'laundry in bldg', 'off-street parking']",1895.0,price: $1895.0<br>Beds: 2.0<br> Baths: 1.0,27,8,0,2,3.0793667964517395
273,280,https://chicago.craigslist.org/chc/apa/d/modern-2bd-1ba-in-unit-wdgreat-location/6863680598.html,Modern 2bd/1ba w. In Unit W&D~Great Location,Apr 11,41.933316,-87.6456,,2.0,1.0,,,1875.0,price: $1875.0<br>Beds: 2.0<br> Baths: 1.0,40,4,0,4,3.7807959753701073
274,281,https://chicago.craigslist.org/chc/apa/d/chicago-stunning-1br-close-to-red-line/6851059026.html,Stunning 1BR Close to Red Line,Apr 11,41.9909,-87.6629,,1.0,1.0,,,1450.0,price: $1450.0<br>Beds: 1.0<br> Baths: 1.0,13,5,0,3,7.833360223095645
275,282,https://chicago.craigslist.org/chc/apa/d/chicago-great-3-bed-2-bath-duplex-in/6856658352.html,Great 3 bed 2 Bath Duplex in Prime Roscoe Village,Apr 11,41.9464,-87.7042,,3.0,2.0,,,2350.0,price: $2350.0<br>Beds: 3.0<br> Baths: 2.0,5,0,0,1,5.712213278987734
276,283,https://chicago.craigslist.org/chc/apa/d/chicago-1-bd-hardwood-floors-cats-ok/6852790562.html,"1 Bd, Hardwood Floors, Cats Ok, Dishwasher, Standard Bathroom",Apr 11,41.9229,-87.6483,,1.0,1.0,,,1550.0,price: $1550.0<br>Beds: 1.0<br> Baths: 1.0,27,8,0,2,3.0793667964517395
277,284,https://chicago.craigslist.org/chc/apa/d/chicago-2-bd-laundry-in-unit-dishwasher/6851155586.html,"2 Bd, Laundry in Unit, Dishwasher",Apr 11,41.9543,-87.6575,,2.0,1.0,,,1650.0,price: $1650.0<br>Beds: 2.0<br> Baths: 1.0,3,2,0,2,5.294094356896243
278,285,https://chicago.craigslist.org/chc/apa/d/chicago-large-3-bed-gem-in-prime-old/6852807003.html,Large 3 Bed Gem In Prime Old Town Across The Street From Apple Store!!,Apr 11,41.9008,-87.6528,,3.0,2.0,,,3000.0,price: $3000.0<br>Beds: 3.0<br> Baths: 2.0,3,2,0,1,1.6556466753462413
279,286,https://chicago.craigslist.org/chc/apa/d/chicago-large-3-bed-gem-in-prime-old/6854928049.html,Large 3 Bed Gem In Prime Old Town Across The Street From Apple Store!!,Apr 11,41.9008,-87.6528,,3.0,2.0,,,3000.0,price: $3000.0<br>Beds: 3.0<br> Baths: 2.0,3,2,0,1,1.6556466753462413
280,287,https://chicago.craigslist.org/chc/apa/d/chicago-big-3-bed-2-bath-duplex-in/6839749198.html,Big 3 bed 2 bath DUPLEX in Wicker Park!,Apr 11,41.9008,-87.6528,,3.0,2.0,,,2700.0,price: $2700.0<br>Beds: 3.0<br> Baths: 2.0,3,2,0,1,1.6556466753462413
281,288,https://chicago.craigslist.org/chc/apa/d/chicago-3-bd-2-bath-pet-ok-internet/6854929809.html,"3 Bd, 2 Bath, Pet Ok, Internet Included, Hardwood Floors, Garage",Apr 11,41.9464,-87.7042,,3.0,2.0,1500.0,"['available mar 1', 'cats are OK - purrr', 'dogs are OK - wooof', 'apartment', 'laundry in bldg', 'attached garage']",3075.0,price: $3075.0<br>Beds: 3.0<br> Baths: 2.0,5,0,0,1,5.712213278987734
282,289,https://chicago.craigslist.org/chc/apa/d/chicago-large-2br-duplex-close-to-blue/6856655349.html,Large 2BR Duplex Close to Blue Line,Apr 11,41.9008,-87.6528,,2.0,1.5,,,2000.0,price: $2000.0<br>Beds: 2.0<br> Baths: 1.5,3,2,0,1,1.6556466753462413
283,290,https://chicago.craigslist.org/chc/apa/d/chicago-awesome-newly-rehabbed-2-bed-2/6839746583.html,Awesome newly rehabbed 2 bed 2 bath in prime Lakeview!,Apr 11,41.9399,-87.6528,,2.0,2.0,,,2295.0,price: $2295.0<br>Beds: 2.0<br> Baths: 2.0,42,4,0,5,4.274104232965883
284,291,https://chicago.craigslist.org/chc/apa/d/chicago-all-brand-new-huge-loft-style/6846976444.html,"ALL BRAND NEW, HUGE Loft-style condo-quality 2 Bed/2 ba IN UNIT W/D",Apr 11,41.9543,-87.6575,,2.0,2.0,,,2600.0,price: $2600.0<br>Beds: 2.0<br> Baths: 2.0,3,2,0,2,5.294094356896243
285,292,https://chicago.craigslist.org/chc/apa/d/chicago-large-3-bed-gem-in-prime-old/6846763613.html,Large 3 Bed Gem In Prime Old Town Across The Street From Apple Store!!,Apr 11,41.9008,-87.6528,,3.0,2.0,,,3000.0,price: $3000.0<br>Beds: 3.0<br> Baths: 2.0,3,2,0,1,1.6556466753462413
286,293,https://chicago.craigslist.org/chc/apa/d/chicago-huge-2br-1ba-close-to-belmont/6846761410.html,"HUGE 2BR/1BA Close to Belmont Red Line, Wellington Brown Line",Apr 11,41.9399,-87.6528,,2.0,1.0,,,2100.0,price: $2100.0<br>Beds: 2.0<br> Baths: 1.0,42,4,0,5,4.274104232965883
287,294,https://chicago.craigslist.org/chc/apa/d/chicago-large-3br-2ba-duplex-in/6846747341.html,Large 3BR/2BA Duplex in Southport Corridor!,Apr 11,41.9399,-87.6528,,3.0,2.0,,,2600.0,price: $2600.0<br>Beds: 3.0<br> Baths: 2.0,42,4,0,5,4.274104232965883
288,295,https://chicago.craigslist.org/chc/apa/d/chicago-updated-1-bed-free-heat/6863680861.html,Updated 1 Bed  FREE HEAT!,Apr 11,41.976181,-87.679609,,1.0,1.0,,,1195.0,price: $1195.0<br>Beds: 1.0<br> Baths: 1.0,5,3,0,1,7.026975075255988
289,296,https://chicago.craigslist.org/chc/apa/d/chicago-1-bd-pet-ok-modern-bathroom/6846732433.html,"1 Bd, Pet Ok, Modern Bathroom, Jacuzzi Tub, New/Renovated Kitchen",Apr 11,41.9229,-87.6483,,1.0,1.0,,,2400.0,price: $2400.0<br>Beds: 1.0<br> Baths: 1.0,27,8,0,2,3.0793667964517395
290,297,https://chicago.craigslist.org/chc/apa/d/chicago-awesome-location-xl-4bed-2-bath/6863680873.html,Awesome Location-XL  4bed/2 Bath w. W&D~2850 Clark,Apr 11,41.933428,-87.646179,,4.0,2.0,,,3800.0,price: $3800.0<br>Beds: 4.0<br> Baths: 2.0,39,4,0,4,3.7907639834748657
291,298,https://chicago.craigslist.org/chc/apa/d/chicago-gorgeous-gold-coast-studio-ss/6863680943.html,Gorgeous Gold Coast Studio - SS Appliances - Available 6/1,Apr 11,41.908422,-87.630314,,0.0,1.0,,,1135.0,price: $1135.0<br>Beds: 0.0<br> Baths: 1.0,33,5,0,2,2.1153696741874093
292,299,https://chicago.craigslist.org/chc/apa/d/chicago-west-rogers-park-1-bedroom/6851669548.html,West Rogers Park 1 Bedroom Close to Transportation. 1 Mo Free & No SD,Apr 11,41.998231,-87.665756,,1.0,1.0,,,945.0,price: $945.0<br>Beds: 1.0<br> Baths: 1.0,10,7,0,3,8.355962345718973
293,300,https://chicago.craigslist.org/chc/apa/d/chicago-auburn-gresham-2br1b-wifi-heat/6863681041.html,AUBURN GRESHAM 2BR1B W/WIFI/HEAT/SECURITY CAMERAS/DINING RM,Apr 11,41.749502,-87.665901,,2.0,1.0,575.0,"['available apr 11', 'cats are OK - purrr', 'dogs are OK - wooof', 'apartment', 'laundry on site']",760.0,price: $760.0<br>Beds: 2.0<br> Baths: 1.0,0,8,0,0,9.01726331677183
294,301,https://chicago.craigslist.org/chc/apa/d/chicago-2ba-large-apartment-in-gorgeous/6863681049.html,2ba / Large Apartment in Gorgeous Two-Flat! Walk to Everything!,Apr 11,42.000604,-87.664837,,3.0,2.0,1800.0,"['available may 1', 'cats are OK - purrr', 'apartment', 'laundry in bldg', 'no smoking', 'street parking']",2400.0,price: $2400.0<br>Beds: 3.0<br> Baths: 2.0,9,5,0,4,8.51070670170765
295,302,https://chicago.craigslist.org/chc/apa/d/chicago-heat-included-elevator-laundry/6847499538.html,Heat included! Elevator/Laundry building. 1/2 block to train and lake!,Apr 11,42.009178,-87.664225,,1.0,1.0,,,1050.0,price: $1050.0<br>Beds: 1.0<br> Baths: 1.0,13,1,1,4,9.09228468064209
296,303,https://chicago.craigslist.org/chc/apa/d/chicago-near-transit-studio-in-west/6841990547.html,Near Transit Studio in West Rogers Park No Deposit + 1 Mo Free!,Apr 11,41.998378,-87.665772,,0.0,1.0,,,765.0,price: $765.0<br>Beds: 0.0<br> Baths: 1.0,10,7,0,3,8.366115361923013
297,304,https://chicago.craigslist.org/chc/apa/d/chicago-large-3br-2ba-duplex-in/6846719396.html,Large 3BR/2BA Duplex in Southport Corridor!,Apr 11,41.9399,-87.6528,,3.0,2.0,,,2600.0,price: $2600.0<br>Beds: 3.0<br> Baths: 2.0,42,4,0,5,4.274104232965883
298,305,https://chicago.craigslist.org/chc/apa/d/chicago-3-bd-2-bath/6846540927.html,"3 Bd, 2 Bath",Apr 11,41.9229,-87.6483,,3.0,2.0,,,3000.0,price: $3000.0<br>Beds: 3.0<br> Baths: 2.0,27,8,0,2,3.0793667964517395
299,306,https://chicago.craigslist.org/chc/apa/d/xtra-large2bd-2ba-wcondo-finishes/6863681139.html,Xtra Large~2Bd/2Ba w.Condo Finishes Dishwasher Elevator~Parking!!!,Apr 11,42.018231,-87.668557,,2.0,2.0,,,1350.0,price: $1350.0<br>Beds: 2.0<br> Baths: 2.0,2,2,1,2,9.742614802031316
300,307,https://chicago.craigslist.org/chc/apa/d/chicago-large-3-bed-gem-in-prime-old/6846542904.html,Large 3 Bed Gem In Prime Old Town Across The Street From Apple Store!!,Apr 11,41.9008,-87.6528,,3.0,2.0,,,3000.0,price: $3000.0<br>Beds: 3.0<br> Baths: 2.0,3,2,0,1,1.6556466753462413
301,308,https://chicago.craigslist.org/chc/apa/d/chicago-studio-apartment-in-beautiful/6863681154.html,Studio Apartment in Beautiful Vintage Building in Lakeview,Apr 11,41.952204,-87.652069,,0.0,1.0,,,950.0,price: $950.0<br>Beds: 0.0<br> Baths: 1.0,11,5,0,3,5.110995546630344
302,309,https://chicago.craigslist.org/chc/apa/d/chicago-west-loop-avail-may-1-2br-fully/6854322724.html,"West Loop Avail. May 1, 2BR Fully Furnished Turnkey",Apr 11,41.884535,-87.644271,,2.0,2.0,1250.0,"['available may 1', 'furnished', 'condo', 'w/d in unit', 'no smoking']",4000.0,price: $4000.0<br>Beds: 2.0<br> Baths: 2.0,50,0,1,9,0.45164332321632533
303,310,https://chicago.craigslist.org/chc/apa/d/chicago-2-bed-2-bath-2-floor-coach/6846538987.html,2 bed 2 bath 2 Floor Coach House with 2 Car Garage!! In unit Laundry!!,Apr 11,41.9543,-87.6575,,2.0,2.0,1600.0,"['available apr 1', 'apartment', 'w/d in unit', 'attached garage']",2300.0,price: $2300.0<br>Beds: 2.0<br> Baths: 2.0,3,2,0,2,5.294094356896243
304,311,https://chicago.craigslist.org/chc/apa/d/chicago-all-brand-new-huge-loft-style/6846380063.html,"ALL BRAND NEW, HUGE Loft-style condo-quality 2 Bed/2 ba IN UNIT W/D",Apr 11,41.9543,-87.6575,,2.0,2.0,,,2600.0,price: $2600.0<br>Beds: 2.0<br> Baths: 2.0,3,2,0,2,5.294094356896243
305,312,https://chicago.craigslist.org/chc/apa/d/chicago-2-bed-2-bath-renovated-gem-in/6846063706.html,2 Bed 2 Bath Renovated Gem In The Heart Lakeview!!,Apr 11,41.9399,-87.6528,,2.0,2.0,,,3000.0,price: $3000.0<br>Beds: 2.0<br> Baths: 2.0,42,4,0,5,4.274104232965883
306,313,https://chicago.craigslist.org/chc/apa/d/chicago-2-bd-pet-ok-25-bath-stainless/6846085480.html,"2 Bd, Pet Ok, 2.5 Bath, Stainless Steel Appliances, Dogs Ok, Cats Ok",Apr 11,41.9229,-87.6483,,2.0,2.5,,,3800.0,price: $3800.0<br>Beds: 2.0<br> Baths: 2.5,27,8,0,2,3.0793667964517395
307,314,https://chicago.craigslist.org/chc/apa/d/chicago-2-bed-2-bath-2-floor-coach/6849167408.html,2 bed 2 bath 2 Floor Coach House with 2 Car Garage!! In unit Laundry!!,Apr 11,41.9543,-87.6575,,2.0,2.0,1600.0,"['available apr 1', 'apartment', 'w/d in unit', 'attached garage']",2300.0,price: $2300.0<br>Beds: 2.0<br> Baths: 2.0,3,2,0,2,5.294094356896243
308,315,https://chicago.craigslist.org/chc/apa/d/chicago-2-bed-2-bath-renovated-gem-in/6846058598.html,2 Bed 2 Bath Renovated Gem In The Heart Lakeview!!,Apr 11,41.9399,-87.6528,,2.0,2.0,,,3000.0,price: $3000.0<br>Beds: 2.0<br> Baths: 2.0,42,4,0,5,4.274104232965883
309,316,https://chicago.craigslist.org/chc/apa/d/chicago-huge-2br-1ba-close-to-belmont/6846051133.html,"HUGE 2BR/1BA Close to Belmont Red Line, Wellington Brown Line",Apr 11,41.9399,-87.6528,,2.0,1.0,,,2100.0,price: $2100.0<br>Beds: 2.0<br> Baths: 1.0,42,4,0,5,4.274104232965883
310,317,https://chicago.craigslist.org/chc/apa/d/chicago-studio-on-devon-st-west-rogers/6842040895.html,Studio on Devon St West Rogers Park Near Loyola & Beach! No Deposit!,Apr 11,41.998231,-87.665756,,0.0,1.0,,,765.0,price: $765.0<br>Beds: 0.0<br> Baths: 1.0,10,7,0,3,8.355962345718973
311,318,https://chicago.craigslist.org/chc/apa/d/chicago-beautifully-updated-gold-coast/6863681250.html,Beautifully Updated Gold Coast studio - SS Appliances - Available 6/1,Apr 11,41.908422,-87.630314,,0.0,1.0,,,1250.0,price: $1250.0<br>Beds: 0.0<br> Baths: 1.0,33,5,0,2,2.1153696741874093
312,319,https://chicago.craigslist.org/chc/apa/d/chicago-2-bed-2-bath-2-floor-coach/6849171128.html,2 bed 2 bath 2 Floor Coach House with 2 Car Garage!! In unit Laundry!!,Apr 11,41.9543,-87.6575,,2.0,2.0,1600.0,"['available apr 1', 'apartment', 'w/d in unit', 'attached garage']",2300.0,price: $2300.0<br>Beds: 2.0<br> Baths: 2.0,3,2,0,2,5.294094356896243
313,320,https://chicago.craigslist.org/chc/apa/d/chicago-amazing-location-close-to-3br/6846036155.html,Amazing LOCATION!  Close to 3BR/2BA Close to Wellington & Sheffield,Apr 11,41.9399,-87.6528,,3.0,2.0,,,2650.0,price: $2650.0<br>Beds: 3.0<br> Baths: 2.0,42,4,0,5,4.274104232965883
314,321,https://chicago.craigslist.org/chc/apa/d/chicago-awesome-1-bedroom-1-bath-loft/6849178203.html,Awesome 1 bedroom 1 bath LOFT Prime West Town,Apr 11,41.8721,-87.6578,,1.0,1.0,700.0,"['available may 1', 'cats are OK - purrr', 'dogs are OK - wooof', 'apartment', 'off-street parking']",1900.0,price: $1900.0<br>Beds: 1.0<br> Baths: 1.0,9,4,0,3,1.0085168139971645
315,322,https://chicago.craigslist.org/chc/apa/d/chicago-must-see-3-bedroom-on-armitage/6849335323.html,Must See 3 Bedroom On Armitage And Halsted!,Apr 11,41.9229,-87.6483,,3.0,2.0,,,3900.0,price: $3900.0<br>Beds: 3.0<br> Baths: 2.0,27,8,0,2,3.0793667964517395
316,323,https://chicago.craigslist.org/chc/apa/d/chicago-1-month-freeno-sd-quiet/6840937382.html,1 Month Free+No SD! Quiet Residential St 1 Bedroom West Rogers Park,Apr 11,41.998231,-87.665756,,1.0,1.0,,,945.0,price: $945.0<br>Beds: 1.0<br> Baths: 1.0,10,7,0,3,8.355962345718973
317,324,https://chicago.craigslist.org/chc/apa/d/chicago-ultra-clean-remodeled-1-bedroom/6863681398.html,Ultra Clean REMODELED 1 bedroom (HEAT INCLUDED)(LAKE VIEW/CABLE),Apr 11,41.994457,-87.655277,,1.0,1.0,900.0,"['apartment', 'laundry in bldg', 'no smoking', 'attached garage', 'wheelchair accessible']",1595.0,price: $1595.0<br>Beds: 1.0<br> Baths: 1.0,9,1,0,3,8.029401162852722
318,325,https://chicago.craigslist.org/chc/apa/d/chicago-studio-on-east-ohio-st-pet-ok/6863681491.html,"Studio on East Ohio St., Pet Ok, Indoor Pool, Non-Smoking, Sun Deck",Apr 11,41.892632,-87.620352,,0.0,1.0,585.0,"['available apr 22', 'cats are OK - purrr', 'dogs are OK - wooof', 'apartment', 'w/d in unit']",1947.0,price: $1947.0<br>Beds: 0.0<br> Baths: 1.0,50,2,0,6,1.4059626070942959
319,326,https://chicago.craigslist.org/chc/apa/d/chicago-awesome-1-bedroom-1-bath-loft/6849171869.html,Awesome 1 bedroom 1 bath LOFT Prime West Town,Apr 11,41.8721,-87.6578,,1.0,1.0,700.0,"['available may 1', 'cats are OK - purrr', 'dogs are OK - wooof', 'apartment', 'off-street parking']",1900.0,price: $1900.0<br>Beds: 1.0<br> Baths: 1.0,9,4,0,3,1.0085168139971645
320,327,https://chicago.craigslist.org/chc/apa/d/chicago-large-3-bed-gem-in-prime-old/6849176573.html,Large 3 Bed Gem In Prime Old Town Across The Street From Apple Store!!,Apr 11,41.9008,-87.6528,,3.0,2.0,,,3000.0,price: $3000.0<br>Beds: 3.0<br> Baths: 2.0,3,2,0,1,1.6556466753462413
321,328,https://chicago.craigslist.org/chc/apa/d/chicago-stunning-1br-close-to-red-line/6851031059.html,Stunning 1BR Close to Red Line,Apr 11,41.9909,-87.6629,,1.0,1.0,,,1450.0,price: $1450.0<br>Beds: 1.0<br> Baths: 1.0,13,5,0,3,7.833360223095645
322,329,https://chicago.craigslist.org/chc/apa/d/chicago-amazing-three-bedroom-two-bath/6854533643.html,"Amazing three bedroom, two bath in hot Wicker Park!",Apr 11,41.9019,-87.6779,,3.0,2.0,1400.0,"['available may 1', 'cats are OK - purrr', 'dogs are OK - wooof', 'apartment', 'off-street parking']",2500.0,price: $2500.0<br>Beds: 3.0<br> Baths: 2.0,31,2,0,2,2.510152885447485
323,330,https://chicago.craigslist.org/chc/apa/d/chicago-amazing-three-bedroom-two-bath/6854533373.html,"Amazing three bedroom, two bath in hot Wicker Park!",Apr 11,41.9019,-87.6779,,3.0,2.0,1400.0,"['available may 1', 'cats are OK - purrr', 'dogs are OK - wooof', 'apartment', 'off-street parking']",2500.0,price: $2500.0<br>Beds: 3.0<br> Baths: 2.0,31,2,0,2,2.510152885447485
324,331,https://chicago.craigslist.org/chc/apa/d/chicago-stunning-1br-close-to-red-line/6850948767.html,Stunning 1BR Close to Red Line,Apr 11,41.9909,-87.6629,,1.0,1.0,,,1450.0,price: $1450.0<br>Beds: 1.0<br> Baths: 1.0,13,5,0,3,7.833360223095645
325,332,https://chicago.craigslist.org/chc/apa/d/chicago-amazing-west-rogers-park-2/6854532797.html,"Amazing West Rogers Park 2 Bedroom Rehab, In-Unit Washer/Dryer",Apr 11,42.0086,-87.6947,,2.0,1.0,,,1350.0,price: $1350.0<br>Beds: 2.0<br> Baths: 1.0,3,2,0,0,9.394021055930136
326,333,https://chicago.craigslist.org/chc/apa/d/chicago-2-bd-2-bath-yard-central-heat/6861867672.html,"2 Bd, 2 Bath, Yard, Central Heat, Deck, Granite Counter Tops, No Pets",Apr 11,41.9019,-87.6779,,2.0,2.0,,,2600.0,price: $2600.0<br>Beds: 2.0<br> Baths: 2.0,31,2,0,2,2.510152885447485
327,334,https://chicago.craigslist.org/chc/apa/d/chicago-beautiful-must-see-2-bedroom/6854532132.html,"Beautiful, MUST SEE 2 Bedroom Unit In Old Town Triangle!!",Apr 11,41.9229,-87.6483,,2.0,2.0,1175.0,"['cats are OK - purrr', 'dogs are OK - wooof', 'apartment']",3473.0,price: $3473.0<br>Beds: 2.0<br> Baths: 2.0,27,8,0,2,3.0793667964517395
328,335,https://chicago.craigslist.org/chc/apa/d/chicago-gold-coast-1-bed-charming-and/6863681702.html,Gold Coast 1 bed - Charming and Spacious - Parkway Views - June 1!,Apr 11,41.908422,-87.630314,,1.0,1.0,,,1300.0,price: $1300.0<br>Beds: 1.0<br> Baths: 1.0,33,5,0,2,2.1153696741874093
329,336,https://chicago.craigslist.org/chc/apa/d/chicago-2-bd-2-bath-bike-room-bike/6854530479.html,"2 Bd, 2 Bath, Bike Room/Bike Trails, Gym, Parking For Rent, Cafe",Apr 11,41.9008,-87.6528,,2.0,2.0,1285.0,"['apartment', 'attached garage']",5005.0,price: $5005.0<br>Beds: 2.0<br> Baths: 2.0,3,2,0,1,1.6556466753462413
330,337,https://chicago.craigslist.org/chc/apa/d/chicago-one-month-free-super-studio-in/6863681705.html,One Month Free - Super Studio in Lincoln Park,Apr 11,41.9229,-87.6483,,0.0,1.0,604.0,"['available apr 11', 'cats are OK - purrr', 'dogs are OK - wooof', 'apartment', 'laundry in bldg', 'attached garage']",1694.0,price: $1694.0<br>Beds: 0.0<br> Baths: 1.0,27,8,0,2,3.0793667964517395
331,338,https://chicago.craigslist.org/chc/apa/d/chicago-1-bd-parking-available-swimming/6854530946.html,"1 Bd, Parking Available, Swimming Pool, Parking Available, Gym, Gym",Apr 11,41.9008,-87.6528,,1.0,1.0,800.0,"['apartment', 'attached garage']",2438.0,price: $2438.0<br>Beds: 1.0<br> Baths: 1.0,3,2,0,1,1.6556466753462413
332,339,https://chicago.craigslist.org/chc/apa/d/chicago-1-bd-hardwood-floors-cats-ok/6854530291.html,"1 Bd, Hardwood Floors, Cats Ok, Dishwasher, Standard Bathroom",Apr 11,41.9229,-87.6483,,1.0,1.0,,,1550.0,price: $1550.0<br>Beds: 1.0<br> Baths: 1.0,27,8,0,2,3.0793667964517395
333,340,https://chicago.craigslist.org/chc/apa/d/chicago-1-bd-pet-ok-window-ac-shared/6854377120.html,"1 Bd, Pet Ok, Window AC, Shared Deck, Standard Bathroom",Apr 11,41.9399,-87.6528,,1.0,1.0,,,1450.0,price: $1450.0<br>Beds: 1.0<br> Baths: 1.0,42,4,0,5,4.274104232965883
334,341,https://chicago.craigslist.org/chc/apa/d/chicago-1-bd-hardwood-floors-cats-ok/6854529788.html,"1 Bd, Hardwood Floors, Cats Ok, Dishwasher, Standard Bathroom",Apr 11,41.9229,-87.6483,,1.0,1.0,,,1550.0,price: $1550.0<br>Beds: 1.0<br> Baths: 1.0,27,8,0,2,3.0793667964517395
335,342,https://chicago.craigslist.org/chc/apa/d/chicago-1-bd-hardwood-floors-cats-ok/6854529229.html,"1 Bd, Hardwood Floors, Cats Ok, Dishwasher, Standard Bathroom",Apr 11,41.9229,-87.6483,,1.0,1.0,,,1550.0,price: $1550.0<br>Beds: 1.0<br> Baths: 1.0,27,8,0,2,3.0793667964517395
336,343,https://chicago.craigslist.org/chc/apa/d/chicago-1-bd-pet-ok-window-ac-shared/6854375325.html,"1 Bd, Pet Ok, Window AC, Shared Deck, Standard Bathroom",Apr 11,41.9399,-87.6528,,1.0,1.0,,,1450.0,price: $1450.0<br>Beds: 1.0<br> Baths: 1.0,42,4,0,5,4.274104232965883
337,344,https://chicago.craigslist.org/chc/apa/d/chicago-classy-south-loop-1bd-hardwood/6863681786.html,"Classy South Loop 1bd w/ Hardwood Floors, Central Air, 24hr Doorman",Apr 11,41.870533,-87.627511,,1.0,1.0,,,1787.0,price: $1787.0<br>Beds: 1.0<br> Baths: 1.0,29,3,0,13,0.8661895895620405
338,345,https://chicago.craigslist.org/chc/apa/d/chicago-2-bd-2-bath-dishwasher/6854373893.html,"2 Bd, 2 Bath, Dishwasher, Stainless Steel Appliances, Laundry in Unit",Apr 11,41.9229,-87.6483,,2.0,2.0,,,2850.0,price: $2850.0<br>Beds: 2.0<br> Baths: 2.0,27,8,0,2,3.0793667964517395
339,346,https://chicago.craigslist.org/chc/apa/d/chicago-modern-1-bedroom-near-old-town/6854024953.html,"Modern 1 Bedroom near Old Town - Pool, Gym and so much more",Apr 11,41.903732,-87.643253,,1.0,1.0,,,2590.0,price: $2590.0<br>Beds: 1.0<br> Baths: 1.0,5,4,0,4,1.7349917221575895
340,347,https://chicago.craigslist.org/chc/apa/d/chicago-ultra-clean-remodeled-1-bedroom/6863681800.html,Ultra Clean REMODELED 1 bedroom (HEAT INCLUDED)(LAKE VIEW/CABLE),Apr 11,41.994457,-87.655277,,1.0,1.0,900.0,"['apartment', 'laundry in bldg', 'no smoking', 'attached garage', 'wheelchair accessible']",1595.0,price: $1595.0<br>Beds: 1.0<br> Baths: 1.0,9,1,0,3,8.029401162852722
341,348,https://chicago.craigslist.org/chc/apa/d/chicago-3-bd-15-bath-modern-bathroom/6854372608.html,"3 Bd, 1.5 Bath, Modern Bathroom, Deck, New/Renovated Bath, Window AC",Apr 11,41.9399,-87.6528,,3.0,1.5,,,2800.0,price: $2800.0<br>Beds: 3.0<br> Baths: 1.5,42,4,0,5,4.274104232965883
